ESTADO,MUNICIPIO,LATITUD,LONGITUD,PEA
AGUASCALIENTES,Aguascalientes,21.87982278,-102.2960467,445862
AGUASCALIENTES,Asientos,22.23831694,-102.089275,2086
AGUASCALIENTES,Calvillo,21.84690722,-102.7187506,9653
AGUASCALIENTES,Cosío,22.36640861,-102.3000442,2679
AGUASCALIENTES,Jesús María,21.96127278,-102.3434164,32482
AGUASCALIENTES,Pabellón de Arteaga,22.14920167,-102.2765417,15404
AGUASCALIENTES,Rincón de Romos,22.22923306,-102.3230686,15294
AGUASCALIENTES,San José de Gracia,22.15021639,-102.4156336,2407
AGUASCALIENTES,Tepezalá,22.22422778,-102.1669714,1981
AGUASCALIENTES,El Llano,21.91886917,-101.9653072,2503
AGUASCALIENTES,San Francisco de los Romo,22.07239306,-102.2726783,8931
BAJA CALIFORNIA,Ensenada,31.80894389,-116.5951339,174405
BAJA CALIFORNIA,Mexicali,32.64117583,-115.4755789,453937
BAJA CALIFORNIA,Tecate,32.57267889,-116.6265503,41838
BAJA CALIFORNIA,Tijuana,32.53246083,-117.0189133,991033
BAJA CALIFORNIA,Playas de Rosarito,32.36368417,-117.0544589,54144
BAJA CALIFORNIA,San Quintín,30.55648528,-115.9390614,2610
BAJA CALIFORNIA SUR,Comondú,25.03463556,-111.6733394,21620
BAJA CALIFORNIA SUR,Mulegé,27.33686833,-112.2682747,7491
BAJA CALIFORNIA SUR,La Paz,24.148745,-110.30659,132619
BAJA CALIFORNIA SUR,Los Cabos,23.06159139,-109.6947492,76114
BAJA CALIFORNIA SUR,Loreto,26.01277778,-111.3433333,8221
CAMPECHE,Calkiní,20.37122611,-90.05073944,7827
CAMPECHE,Campeche,19.84481417,-90.53964917,127253
CAMPECHE,Champotón,19.35621861,-90.72389111,16983
CAMPECHE,Hecelchakán,20.17696611,-90.13451722,5678
CAMPECHE,Hopelchén,19.74554806,-89.84504361,3831
CAMPECHE,Palizada,18.25359833,-92.09090167,1634
CAMPECHE,Tenabo,20.03967694,-90.22576333,4378
CAMPECHE,Escárcega,18.60431472,-90.73200083,14749
CAMPECHE,Calakmul,18.50537083,-89.39727556,2701
CAMPECHE,Candelaria,18.18345056,-91.04629361,5483
CAMPECHE,Seybaplaya,19.63919694,-90.68830111,4351
COAHUILA,Abasolo,27.18194444,-101.4263889,327
COAHUILA,Acuña,29.33000556,-100.9782583,81641
COAHUILA,Allende,28.34722222,-100.8541667,9102
COAHUILA,Arteaga,25.45062056,-100.8496225,7806
COAHUILA,Candela,26.84027778,-100.6638889,439
COAHUILA,Castaños,26.78527778,-101.4305556,10920
COAHUILA,Cuatro Ciénegas,26.98686361,-102.0671011,4409
COAHUILA,Escobedo,27.23472222,-101.4125,219
COAHUILA,Francisco I. Madero,25.775,-103.2730556,15299
COAHUILA,Frontera,26.92611111,-101.4494444,32959
COAHUILA,General Cepeda,25.3799075,-101.4792917,2319
COAHUILA,Guerrero,28.30841833,-100.3787256,318
COAHUILA,Hidalgo,27.79168056,-99.876055,548
COAHUILA,Jiménez,29.07030833,-100.6742275,488
COAHUILA,Juárez,27.60650639,-100.7271197,344
COAHUILA,Lamadrid,27.04849361,-101.7935992,555
COAHUILA,Matamoros,25.52813611,-103.2303836,27948
COAHUILA,Monclova,26.90124222,-101.4172244,108199
COAHUILA,Morelos,28.41010444,-100.8866314,2791
COAHUILA,Múzquiz,27.87754972,-101.5165178,16475
COAHUILA,Nadadores,27.02903056,-101.5920233,1833
COAHUILA,Nava,28.42187472,-100.7675536,10744
COAHUILA,Ocampo,27.311215,-102.3974047,1352
COAHUILA,Parras,25.43738056,-102.1841689,16898
COAHUILA,Piedras Negras,28.70809306,-100.5284414,84065
COAHUILA,Progreso,27.42897778,-100.9872333,203
COAHUILA,Ramos Arizpe,25.54323361,-100.9507819,57054
COAHUILA,Sabinas,27.84888833,-101.1199892,27516
COAHUILA,Sacramento,27.00443861,-101.7250358,882
COAHUILA,Saltillo,25.42166472,-100.9997211,417316
COAHUILA,San Buenaventura,27.06025722,-101.5500286,9978
COAHUILA,San Juan de Sabinas,27.92939028,-101.3032933,512
COAHUILA,San Pedro,25.75777778,-102.9831569,21848
COAHUILA,Sierra Mojada,27.28687694,-103.7014567,184
COAHUILA,Torreón,25.54175333,-103.4530606,344016
COAHUILA,Viesca,25.34360528,-102.8063503,1251
COAHUILA,Villa Unión,28.22049778,-100.725155,2063
COAHUILA,Zaragoza,28.48704306,-100.9176217,4671
COLIMA,Armería,18.93707278,-103.9649972,8335
COLIMA,Colima,19.24292222,-103.7281189,77473
COLIMA,Comala,19.32319861,-103.7588011,5277
COLIMA,Coquimatlán,19.20141,-103.8109169,7722
COLIMA,Cuauhtémoc,19.32877444,-103.6018606,4957
COLIMA,Ixtlahuacán,19.00118361,-103.7385933,1489
COLIMA,Manzanillo,19.05320583,-104.3163806,85910
COLIMA,Minatitlán,19.38611,-104.0496369,2962
COLIMA,Tecomán,18.91060417,-103.8737889,46751
COLIMA,Villa de Álvarez,19.26477639,-103.7367586,80944
CHIAPAS,Acacoyagua,15.34096528,-92.67461722,3655
CHIAPAS,Acala,16.55167361,-92.80750833,6761
CHIAPAS,Acapetahua,15.28283778,-92.68913194,2900
CHIAPAS,Altamirano,16.73592028,-92.03859361,4957
CHIAPAS,Amatán,17.37284833,-92.81912306,1468
CHIAPAS,Amatenango de la Frontera,15.43501056,-92.11515778,341
CHIAPAS,Amatenango del Valle,16.52850139,-92.43549056,2711
CHIAPAS,Angel Albino Corzo,15.87264444,-92.72507972,5561
CHIAPAS,Arriaga,16.236065,-93.89947333,13408
CHIAPAS,Bejucal de Ocampo,15.45539306,-92.15840694,25
CHIAPAS,Bella Vista,15.5829975,-92.24484583,854
CHIAPAS,Berriozábal,16.80032083,-93.27327139,17538
CHIAPAS,Bochil,16.99638333,-92.89021889,6170
CHIAPAS,El Bosque,17.06221028,-92.72140889,1554
CHIAPAS,Cacahoatán,14.98978861,-92.16811028,8405
CHIAPAS,Catazajá,17.72832139,-92.01636611,1453
CHIAPAS,Cintalapa,16.69868222,-93.72042806,22397
CHIAPAS,Coapilla,17.13079139,-93.15902194,1605
CHIAPAS,Comitán de Domínguez,16.25246056,-92.135835,57902
CHIAPAS,La Concordia,16.11671583,-92.68793389,3947
CHIAPAS,Copainalá,17.09361111,-93.21055556,3187
CHIAPAS,Chalchihuitán,16.96340472,-92.61839528,598
CHIAPAS,Chamula,16.7875,-92.68916667,1974
CHIAPAS,Chanal,16.66006194,-92.25994222,2120
CHIAPAS,Chapultenango,17.34040056,-93.13007833,1184
CHIAPAS,Chenalhó,16.89427694,-92.62614806,1328
CHIAPAS,Chiapa de Corzo,16.70795806,-93.01595917,26492
CHIAPAS,Chiapilla,16.57049306,-92.720025,1798
CHIAPAS,Chicoasén,16.967255,-93.105235,1333
CHIAPAS,Chicomuselo,15.74493611,-92.28328722,3273
CHIAPAS,Chilón,17.10549139,-92.27152833,4191
CHIAPAS,Escuintla,15.31926944,-92.65855833,4826
CHIAPAS,Frontera Comalapa,15.66016389,-92.14105,9718
CHIAPAS,Frontera Hidalgo,14.7778375,-92.17598333,1970
CHIAPAS,La Grandeza,15.51013028,-92.22588,468
CHIAPAS,Huehuetán,15.01851972,-92.38418083,3747
CHIAPAS,Huixtán,16.71215056,-92.45459694,892
CHIAPAS,Huitiupán,17.17323167,-92.68593194,1654
CHIAPAS,Huixtla,15.13828861,-92.46581778,15387
CHIAPAS,La Independencia,16.25415167,-92.02384111,1936
CHIAPAS,Ixhuatán,17.29327083,-93.00838194,1513
CHIAPAS,Ixtacomitán,17.430795,-93.0965725,2560
CHIAPAS,Ixtapa,16.80352528,-92.90590278,2846
CHIAPAS,Ixtapangajoya,17.49753889,-93.00166583,646
CHIAPAS,Jiquipilas,16.66772139,-93.65047528,5548
CHIAPAS,Jitotol,17.0679675,-92.86233611,2645
CHIAPAS,Juárez,17.60815111,-93.19333083,3772
CHIAPAS,Larráinzar,16.88444611,-92.71325833,1323
CHIAPAS,La Libertad,17.69013639,-91.71906222,1165
CHIAPAS,Mapastepec,15.44113417,-92.89160583,9105
CHIAPAS,Las Margaritas,16.31594722,-91.98156833,11050
CHIAPAS,Mazapa de Madero,15.38796583,-92.18773472,581
CHIAPAS,Mazatán,14.86302528,-92.44947083,3771
CHIAPAS,Metapa,14.83731417,-92.19094472,1127
CHIAPAS,Mitontic,16.86447083,-92.62965139,259
CHIAPAS,Motozintla,15.36316722,-92.24774444,11887
CHIAPAS,Nicolás Ruíz,16.43707306,-92.58534722,1333
CHIAPAS,Ocosingo,16.90803833,-92.09582667,22227
CHIAPAS,Ocotepec,17.22502917,-93.16440528,1553
CHIAPAS,Ocozocoautla de Espinosa,16.76146194,-93.3756525,21494
CHIAPAS,Ostuacán,17.40559111,-93.33713639,1432
CHIAPAS,Osumacinta,16.93546694,-93.09133722,752
CHIAPAS,Oxchuc,16.78611944,-92.33491667,2946
CHIAPAS,Palenque,17.50913333,-91.98103333,26180
CHIAPAS,Pantelhó,17.00665861,-92.46957972,2710
CHIAPAS,Pantepec,17.18809194,-93.04954583,906
CHIAPAS,Pichucalco,17.50855083,-93.1177675,7322
CHIAPAS,Pijijiapan,15.69167361,-93.20931694,9142
CHIAPAS,El Porvenir,15.45636722,-92.27964028,596
CHIAPAS,Villa Comaltitlán,15.2119375,-92.57602417,4010
CHIAPAS,Pueblo Nuevo Solistahuacán,17.15756806,-92.89732222,5272
CHIAPAS,Rayón,17.20050333,-93.01121722,3447
CHIAPAS,Reforma,17.86581194,-93.14710806,13069
CHIAPAS,Las Rosas,16.36413194,-92.36958056,10327
CHIAPAS,Sabanilla,17.28348417,-92.55172,1040
CHIAPAS,Salto de Agua,17.55702083,-92.33342194,3020
CHIAPAS,San Cristóbal de las Casas,16.73702222,-92.63756389,97432
CHIAPAS,San Fernando,16.87171194,-93.20628472,5439
CHIAPAS,Siltepec,15.557185,-92.32286,1536
CHIAPAS,Simojovel,17.14082611,-92.71520833,6797
CHIAPAS,Sitalá,17.02505083,-92.30774278,487
CHIAPAS,Socoltenango,16.24294944,-92.35031583,2322
CHIAPAS,Solosuchiapa,17.42865556,-93.03117944,921
CHIAPAS,Soyaló,16.8909925,-92.92529,1782
CHIAPAS,Suchiapa,16.62195806,-93.10479389,8369
CHIAPAS,Suchiate,14.67945222,-92.15094222,8537
CHIAPAS,Sunuapa,17.48937778,-93.24316944,359
CHIAPAS,Tapachula,14.91107139,-92.26432,105741
CHIAPAS,Tapalapa,17.19004806,-93.10460472,707
CHIAPAS,Tapilula,17.24840278,-93.01625833,3616
CHIAPAS,Tecpatán,17.13699528,-93.31146778,2482
CHIAPAS,Tenejapa,16.81901667,-92.50649167,879
CHIAPAS,Teopisca,16.54151389,-92.47259722,9618
CHIAPAS,Tila,17.30063472,-92.42586472,1286
CHIAPAS,Tonalá,16.09135556,-93.75178333,18767
CHIAPAS,Totolapa,16.5447325,-92.68037611,1686
CHIAPAS,La Trinitaria,16.11905944,-92.05046944,5892
CHIAPAS,Tumbalá,17.27846333,-92.31598778,1264
CHIAPAS,Tuxtla Gutiérrez,16.75397222,-93.11519167,296461
CHIAPAS,Tuxtla Chico,14.94018972,-92.16896972,3453
CHIAPAS,Tuzantán,15.14606333,-92.42162056,1656
CHIAPAS,Tzimol,16.18423139,-92.18793667,2891
CHIAPAS,Unión Juárez,15.06070722,-92.08195778,1219
CHIAPAS,Venustiano Carranza,16.33961722,-92.56513528,7919
CHIAPAS,Villa Corzo,16.18475111,-93.26768361,5267
CHIAPAS,Villaflores,16.23548583,-93.2677075,18942
CHIAPAS,Yajalón,17.17391,-92.33394417,8484
CHIAPAS,San Lucas,16.61163667,-92.71934222,2258
CHIAPAS,Zinacantán,16.76011889,-92.72358056,2314
CHIAPAS,San Juan Cancuc,16.89224333,-92.3719525,1749
CHIAPAS,Aldama,16.91781778,-92.68819194,483
CHIAPAS,Benemérito de las Américas,16.51582806,-90.65330194,4351
CHIAPAS,Maravilla Tenejapa,16.14039667,-91.29510361,804
CHIAPAS,Marqués de Comillas,16.33313333,-90.76528333,1071
CHIAPAS,Montecristo de Guerrero,15.6939175,-92.61926,1224
CHIAPAS,San Andrés Duraznal,17.1319975,-92.8049875,1015
CHIAPAS,Santiago el Pinar,16.94143806,-92.71459583,496
CHIAPAS,Capitán Luis Ángel Vidal,15.60112778,-92.6290975,193
CHIAPAS,Rincón Chamula San Pedro,17.20947083,-92.93757028,2356
CHIAPAS,El Parral,16.36622778,-93.00671111,5418
CHIAPAS,Emiliano Zapata,16.53917167,-92.89672444,2524
CHIAPAS,Mezcalapa,17.1892225,-93.60477333,3324
CHIAPAS,Honduras de la Sierra,15.58966333,-92.4760575,418
CHIHUAHUA,Ahumada,30.61773389,-106.5124153,5075
CHIHUAHUA,Aldama,28.83838056,-105.9112925,10899
CHIHUAHUA,Allende,26.93942583,-105.3950767,2193
CHIHUAHUA,Aquiles Serdán,28.59450333,-105.8874739,9855
CHIHUAHUA,Ascensión,31.09217611,-107.9959494,7093
CHIHUAHUA,Bachíniva,28.76473167,-107.2543622,1009
CHIHUAHUA,Balleza,26.9541075,-106.3469233,1034
CHIHUAHUA,Batopilas de Manuel Gómez Morín,27.02665222,-107.73971,360
CHIHUAHUA,Bocoyna,27.84074278,-107.5892525,361
CHIHUAHUA,Buenaventura,29.84340861,-107.4713142,3900
CHIHUAHUA,Camargo,27.6949625,-105.1716203,20678
CHIHUAHUA,Carichí,27.91653194,-107.0568103,666
CHIHUAHUA,Casas Grandes,30.37570361,-107.9488053,3029
CHIHUAHUA,Coronado,26.737615,-105.1583119,455
CHIHUAHUA,Coyame del Sotol,29.46204278,-105.0943575,272
CHIHUAHUA,La Cruz,27.86388889,-105.1963889,591
CHIHUAHUA,Cuauhtémoc,28.40631167,-106.8660444,67527
CHIHUAHUA,Cusihuiriachi,28.24111111,-106.8366667,44
CHIHUAHUA,Chihuahua,28.63679389,-106.0763067,483409
CHIHUAHUA,Chínipas,27.39281028,-108.5362292,774
CHIHUAHUA,Delicias,28.19294806,-105.4710467,64152
CHIHUAHUA,Dr. Belisario Domínguez,28.15466667,-106.4770303,140
CHIHUAHUA,Galeana,30.11294944,-107.6167442,420
CHIHUAHUA,Santa Isabel,28.34334583,-106.3680544,799
CHIHUAHUA,Gómez Farías,29.35701917,-107.738655,1957
CHIHUAHUA,Gran Morelos,28.24782444,-106.5101233,247
CHIHUAHUA,Guachochi,26.8191525,-107.0693617,8359
CHIHUAHUA,Guadalupe,31.39010694,-106.1017536,797
CHIHUAHUA,Guadalupe y Calvo,26.09451583,-106.9643694,2938
CHIHUAHUA,Guazapares,27.27638167,-108.2799558,1093
CHIHUAHUA,Guerrero,28.5481925,-107.4869236,3685
CHIHUAHUA,Hidalgo del Parral,26.92208778,-105.6671433,53269
CHIHUAHUA,Huejotitán,27.05467,-106.1794564,107
CHIHUAHUA,Ignacio Zaragoza,29.64321222,-107.7641947,1368
CHIHUAHUA,Janos,30.8872575,-108.1898497,1480
CHIHUAHUA,Jiménez,27.13054917,-104.9229767,15664
CHIHUAHUA,Juárez,31.74646528,-106.4850186,780430
CHIHUAHUA,Julimes,28.42305556,-105.4305556,917
CHIHUAHUA,López,27.0025,-105.0330556,897
CHIHUAHUA,Madera,29.19,-108.1413889,6437
CHIHUAHUA,Maguarichi,27.85930278,-107.9939558,236
CHIHUAHUA,Manuel Benavides,29.10738639,-103.9078158,282
CHIHUAHUA,Matachí,28.84322833,-107.7546481,645
CHIHUAHUA,Matamoros,26.76387694,-105.58333,1028
CHIHUAHUA,Meoqui,28.26779667,-105.4802911,11265
CHIHUAHUA,Morelos,26.67052667,-107.6772478,386
CHIHUAHUA,Moris,28.14838417,-108.5232375,610
CHIHUAHUA,Namiquipa,29.25076,-107.4088717,803
CHIHUAHUA,Nonoava,27.47205417,-106.7353322,545
CHIHUAHUA,Nuevo Casas Grandes,30.41398556,-107.9121031,29868
CHIHUAHUA,Ocampo,28.19383444,-108.3667406,150
CHIHUAHUA,Ojinaga,29.56450056,-104.4156647,10167
CHIHUAHUA,Praxedis G. Guerrero,31.37206778,-106.0053947,856
CHIHUAHUA,Riva Palacio,28.54600778,-106.5026322,280
CHIHUAHUA,Rosales,28.18694444,-105.5544444,2813
CHIHUAHUA,Rosario,27.31964083,-106.2954981,85
CHIHUAHUA,San Francisco de Borja,27.90182111,-106.6849164,483
CHIHUAHUA,San Francisco de Conchos,27.58855194,-105.3346414,200
CHIHUAHUA,San Francisco del Oro,26.85899444,-105.8500803,1652
CHIHUAHUA,Santa Bárbara,26.8021,-105.8180997,3798
CHIHUAHUA,Satevó,27.95603361,-106.1072042,201
CHIHUAHUA,Saucillo,28.03267444,-105.2880322,4842
CHIHUAHUA,Temósachic,28.95275833,-107.8298394,683
CHIHUAHUA,El Tule,27.0536125,-106.2662533,214
CHIHUAHUA,Urique,27.21271472,-107.9143047,306
CHIHUAHUA,Uruachi,27.86792417,-108.215195,398
CHIHUAHUA,Valle de Zaragoza,27.45713167,-105.8109942,1013
CDMX,Azcapotzalco,19.48410278,-99.18436056,239069
CDMX,Coyoacán,19.35021389,-99.16214556,340527
CDMX,Cuajimalpa de Morelos,19.35735028,-99.29979222,103429
CDMX,Gustavo A. Madero,19.48294528,-99.11347083,618184
CDMX,Iztacalco,19.39590139,-99.09761278,224915
CDMX,Iztapalapa,19.35900389,-99.0926225,984791
CDMX,La Magdalena Contreras,19.30489806,-99.24151556,132336
CDMX,Milpa Alta,19.19124944,-99.02337194,10567
CDMX,Álvaro Obregón,19.39080611,-99.19541333,422781
CDMX,Tláhuac,19.27056639,-99.00484611,171585
CDMX,Tlalpan,19.288275,-99.16712611,331387
CDMX,Xochimilco,19.26346194,-99.10491333,228723
CDMX,Benito Juárez,19.37199222,-99.15785333,276919
CDMX,Cuauhtémoc,19.44164667,-99.15188361,337364
CDMX,Miguel Hidalgo,19.40726889,-99.19075444,244498
CDMX,Venustiano Carranza,19.41926194,-99.11370111,247472
DURANGO,Canatlán,24.52726333,-104.7783736,5403
DURANGO,Canelas,25.12297083,-106.5456331,326
DURANGO,Coneto de Comonfort,24.97912472,-104.7689169,271
DURANGO,Cuencamé,24.87093944,-103.6984619,5350
DURANGO,Durango,24.02398806,-104.6701944,303776
DURANGO,General Simón Bolívar,24.68907389,-103.2259753,475
DURANGO,Gómez Palacio,25.57010722,-103.4964169,142950
DURANGO,Guadalupe Victoria,24.44643333,-104.12366,8634
DURANGO,Guanaceví,25.93166194,-105.9544319,1660
DURANGO,Hidalgo,26.25144528,-104.9134786,181
DURANGO,Indé,25.91202111,-105.2237911,216
DURANGO,Lerdo,25.53655167,-103.5248494,46529
DURANGO,Mapimí,25.83332361,-103.8481936,2484
DURANGO,Mezquital,23.47353028,-104.3967439,629
DURANGO,Nazas,25.22777667,-104.1138031,1577
DURANGO,Nombre de Dios,23.84821083,-104.244705,2701
DURANGO,Ocampo,26.44156194,-105.5064389,354
DURANGO,El Oro,25.94932389,-105.3648656,3012
DURANGO,Otáez,24.69868917,-105.9940575,275
DURANGO,Pánuco de Coronado,24.40102444,-104.3192644,2429
DURANGO,Peñón Blanco,24.79250861,-104.0342667,2223
DURANGO,Poanas,23.97509222,-104.0441361,5174
DURANGO,Pueblo Nuevo,23.77815056,-105.3601919,10910
DURANGO,Rodeo,25.18071861,-104.5604444,2125
DURANGO,San Bernardo,26.00078722,-105.5232567,258
DURANGO,San Dimas,24.10218167,-105.931245,2237
DURANGO,San Juan de Guadalupe,24.63085278,-102.7820547,548
DURANGO,San Juan del Río,24.778255,-104.4592256,1286
DURANGO,San Luis del Cordero,25.41764861,-104.2777861,554
DURANGO,San Pedro del Gallo,25.56586389,-104.2928342,231
DURANGO,Santa Clara,24.47544389,-103.3572222,1471
DURANGO,Santiago Papasquiaro,25.03907972,-105.420945,13735
DURANGO,Súchil,23.62216306,-103.9218697,1573
DURANGO,Tamazula,24.97031611,-106.9666017,1485
DURANGO,Tepehuanes,25.34320861,-105.7230019,2497
DURANGO,Tlahualilo,26.10738583,-103.4392358,3512
DURANGO,Topia,25.2090225,-106.5711958,1037
DURANGO,Vicente Guerrero,23.73111111,-103.9877778,8396
DURANGO,Nuevo Ideal,24.88831333,-105.0742053,5492
GUANAJUATO,Abasolo,20.4509,-101.5283606,14436
GUANAJUATO,Acámbaro,20.03538028,-100.7193264,28330
GUANAJUATO,San Miguel de Allende,20.90401278,-100.7133814,40525
GUANAJUATO,Apaseo el Alto,20.45717139,-100.6216264,13815
GUANAJUATO,Apaseo el Grande,20.54528417,-100.6882169,15367
GUANAJUATO,Atarjea,21.26704028,-99.72026722,198
GUANAJUATO,Celaya,20.52152389,-100.8135731,196254
GUANAJUATO,Manuel Doblado,20.72751806,-101.9527903,7688
GUANAJUATO,Comonfort,20.7200475,-100.7612022,11791
GUANAJUATO,Coroneo,20.19861111,-100.3644444,1858
GUANAJUATO,Cortazar,20.48350639,-100.9637289,35144
GUANAJUATO,Cuerámaro,20.62647833,-101.6703858,6861
GUANAJUATO,Doctor Mora,21.14264,-100.3189494,3057
GUANAJUATO,Dolores Hidalgo Cuna de la Independencia Nacional,21.15920028,-100.9172356,35074
GUANAJUATO,Guanajuato,21.0160975,-101.2536214,35643
GUANAJUATO,Huanímaro,20.36827444,-101.4968667,2579
GUANAJUATO,Irapuato,20.67280139,-101.3481169,223448
GUANAJUATO,Jaral del Progreso,20.37651667,-101.063975,9984
GUANAJUATO,Jerécuaro,20.15003361,-100.5105281,3966
GUANAJUATO,León,21.12197194,-101.6831997,836010
GUANAJUATO,Moroleón,20.13187028,-101.1892086,23019
GUANAJUATO,Ocampo,21.64849222,-101.4780164,3264
GUANAJUATO,Pénjamo,20.43179472,-101.7250439,20500
GUANAJUATO,Pueblo Nuevo,20.52595722,-101.3708469,1644
GUANAJUATO,Purísima del Rincón,21.02957917,-101.8780992,28014
GUANAJUATO,Romita,20.871215,-101.5171172,11072
GUANAJUATO,Salamanca,20.56868056,-101.1999153,74990
GUANAJUATO,Salvatierra,20.2161175,-100.88136,16574
GUANAJUATO,San Diego de la Unión,21.46638667,-100.8733164,3849
GUANAJUATO,San Felipe,21.47933583,-101.2159447,15591
GUANAJUATO,San Francisco del Rincón,21.01868139,-101.8585181,44170
GUANAJUATO,San José Iturbide,21.00082194,-100.3857203,14096
GUANAJUATO,San Luis de la Paz,21.29881611,-100.5151256,24688
GUANAJUATO,Santa Catarina,21.1398775,-100.0669131,774
GUANAJUATO,Santa Cruz de Juventino Rosas,20.64320028,-100.9940372,20499
GUANAJUATO,Santiago Maravatío,20.17240694,-100.9952256,1776
GUANAJUATO,Silao de la Victoria,20.94445028,-101.4262161,40640
GUANAJUATO,Tarandacuao,20.00396806,-100.5163286,2375
GUANAJUATO,Tarimoro,20.28854056,-100.7559419,5983
GUANAJUATO,Tierra Blanca,21.1000025,-100.1591539,1186
GUANAJUATO,Uriangato,20.14101167,-101.1780511,28538
GUANAJUATO,Valle de Santiago,20.39132222,-101.1814297,35254
GUANAJUATO,Victoria,21.21217222,-100.2159358,1496
GUANAJUATO,Villagrán,20.51137167,-100.9965028,13258
GUANAJUATO,Xichú,21.29860778,-100.0596122,837
GUANAJUATO,Yuriria,20.21274333,-101.1309333,12967
GUERRERO,Acapulco de Juárez,16.86186694,-99.88655778,329782
GUERRERO,Ahuacuotzingo,17.71408889,-98.93490778,1596
GUERRERO,Ajuchitlán del Progreso,18.15955472,-100.4960569,2990
GUERRERO,Alcozauca de Guerrero,17.46352389,-98.38388778,637
GUERRERO,Alpoyeca,17.67006389,-98.51323889,2009
GUERRERO,Apaxtla,18.13007833,-99.93231361,2879
GUERRERO,Arcelia,18.315825,-100.2839519,11019
GUERRERO,Atenango del Río,18.10434306,-99.10780306,1312
GUERRERO,Atlamajalcingo del Monte,17.31165528,-98.60508528,238
GUERRERO,Atlixtac,17.56367917,-98.93323222,1087
GUERRERO,Atoyac de Álvarez,17.21273889,-100.4331294,12123
GUERRERO,Ayutla de los Libres,16.96528694,-99.09738389,8913
GUERRERO,Azoyú,16.73296028,-98.60109083,2427
GUERRERO,Benito Juárez,17.13636972,-100.4686681,3870
GUERRERO,Buenavista de Cuéllar,18.45788722,-99.40534222,3782
GUERRERO,Coahuayutla de José María Izazaga,18.316395,-101.7346114,621
GUERRERO,Cocula,18.23586639,-99.66119,1665
GUERRERO,Copala,16.60875917,-98.97862361,3361
GUERRERO,Copalillo,18.03415139,-99.04172444,2958
GUERRERO,Copanatoyac,17.46184472,-98.71346278,1217
GUERRERO,Coyuca de Benítez,17.00900167,-100.0893672,7239
GUERRERO,Coyuca de Catalán,18.33101944,-100.6985658,3244
GUERRERO,Cuajinicuilapa,16.47198556,-98.41674472,4211
GUERRERO,Cualác,17.74276167,-98.66072778,884
GUERRERO,Cuautepec,16.74900278,-99.00154556,1534
GUERRERO,Cuetzala del Progreso,18.13414139,-99.83148556,857
GUERRERO,Cutzamala de Pinzón,18.46524444,-100.5785128,2225
GUERRERO,Chilapa de Álvarez,17.59423222,-99.17768167,17805
GUERRERO,Chilpancingo de los Bravo,17.55164944,-99.50106278,116361
GUERRERO,Florencio Villarreal,16.72388056,-99.12378722,6027
GUERRERO,General Canuto A. Neri,18.41848472,-100.0720517,607
GUERRERO,General Heliodoro Castillo,17.78944806,-99.97831778,3798
GUERRERO,Huamuxtitlán,17.80217444,-98.56528667,3578
GUERRERO,Huitzuco de los Figueroa,18.30598,-99.33430306,7713
GUERRERO,Iguala de la Independencia,18.34454917,-99.53836833,67907
GUERRERO,Igualapa,16.74371333,-98.4766175,1542
GUERRERO,Ixcateopan de Cuauhtémoc,18.50245222,-99.79356944,1216
GUERRERO,Zihuatanejo de Azueta,17.6504575,-101.5481756,37066
GUERRERO,Juan R. Escudero,17.16900444,-99.52204694,5588
GUERRERO,Leonardo Bravo,17.66080194,-99.67734056,5918
GUERRERO,Malinaltepec,17.24462833,-98.6711075,601
GUERRERO,Mártir de Cuilapan,17.74192528,-99.32934111,2617
GUERRERO,Metlatónoc,17.19537222,-98.40709944,674
GUERRERO,Mochitlán,17.47235778,-99.37129444,2939
GUERRERO,Olinalá,17.77833222,-98.74125639,3243
GUERRERO,Ometepec,16.68508917,-98.40442139,13210
GUERRERO,Pedro Ascencio Alquisiras,18.51236417,-99.88701778,266
GUERRERO,Petatlán,17.53820667,-101.2745519,10816
GUERRERO,Pilcaya,18.74758389,-99.67617472,2978
GUERRERO,Pungarabato,18.36227278,-100.6682408,12577
GUERRERO,Quechultenango,17.40916667,-99.24083333,3240
GUERRERO,San Luis Acatlán,16.80858306,-98.73361278,4731
GUERRERO,San Marcos,16.79734361,-99.39004639,6374
GUERRERO,San Miguel Totolapan,18.16126667,-100.3908211,1619
GUERRERO,Taxco de Alarcón,18.55738194,-99.60459472,26894
GUERRERO,Tecoanapa,16.98885444,-99.26087639,2342
GUERRERO,Técpan de Galeana,17.22260861,-100.6323778,8198
GUERRERO,Teloloapan,18.37180917,-99.86957278,11514
GUERRERO,Tepecoacuilco de Trujano,18.28698972,-99.46669417,3419
GUERRERO,Tetipac,18.64938528,-99.64898222,1073
GUERRERO,Tixtla de Guerrero,17.56672417,-99.39827139,12913
GUERRERO,Tlacoachistlahuaca,16.80990889,-98.30174889,2240
GUERRERO,Tlacoapa,17.25994833,-98.74821139,670
GUERRERO,Tlalchapa,18.40867444,-100.4782533,1621
GUERRERO,Tlalixtaquilla de Maldonado,17.57448361,-98.36986222,1157
GUERRERO,Tlapa de Comonfort,17.54694944,-98.58213833,27316
GUERRERO,Tlapehuala,18.23976028,-100.5415742,3652
GUERRERO,La Unión de Isidoro Montes de Oca,17.98233333,-101.8056847,1423
GUERRERO,Xalpatláhuac,17.47087528,-98.60644917,1120
GUERRERO,Xochihuehuetlán,17.90564028,-98.48766139,2232
GUERRERO,Xochistlahuaca,16.79242361,-98.24246667,2369
GUERRERO,Zapotitlán Tablas,17.42288722,-98.78170889,737
GUERRERO,Zirándaro,18.4791325,-100.9758561,1790
GUERRERO,Zitlala,17.69034056,-99.18524778,2498
GUERRERO,Eduardo Neri,17.65319722,-99.52593667,13703
GUERRERO,Acatepec,17.32521889,-98.91033361,1090
GUERRERO,Marquelia,16.58331389,-98.81785194,3536
GUERRERO,Cochoapa el Grande,17.19296694,-98.45527972,620
GUERRERO,José Joaquín de Herrera,17.44872611,-99.02438778,742
GUERRERO,Juchitán,16.62707056,-98.63671361,1174
GUERRERO,Iliatenco,17.04553083,-98.68581139,971
HIDALGO,Acatlán,20.14590306,-98.43837194,221
HIDALGO,Acaxochitlán,20.15869333,-98.20324417,2112
HIDALGO,Actopan,20.26908583,-98.94290056,17408
HIDALGO,Agua Blanca de Iturbide,20.34950389,-98.35638611,1099
HIDALGO,Ajacuba,20.092525,-99.1221325,4235
HIDALGO,Alfajayucan,20.40997111,-99.34958917,1017
HIDALGO,Almoloya,19.70331944,-98.40329306,2545
HIDALGO,Apan,19.71,-98.45194444,14038
HIDALGO,El Arenal,20.22142389,-98.91104556,1838
HIDALGO,Atitalaquia,20.05915472,-99.22112861,3243
HIDALGO,Atlapexco,21.01711389,-98.34818667,1450
HIDALGO,Atotonilco el Grande,20.28688167,-98.66906167,4284
HIDALGO,Atotonilco de Tula,20.00776667,-99.22019083,4576
HIDALGO,Calnali,20.89717778,-98.58353222,1808
HIDALGO,Cardonal,20.61338861,-99.11706889,314
HIDALGO,Cuautepec de Hinojosa,20.03547,-98.30973806,9966
HIDALGO,Chapantongo,20.28531556,-99.41323111,976
HIDALGO,Chapulhuacán,21.15941778,-98.9045875,1816
HIDALGO,Chilcuautla,20.33096167,-99.23174667,678
HIDALGO,Eloxochitlán,20.7467175,-98.80914083,213
HIDALGO,Emiliano Zapata,19.65700833,-98.54741611,4745
HIDALGO,Epazoyucan,20.01802167,-98.63620917,1632
HIDALGO,Francisco I. Madero,20.24518556,-99.08889361,5773
HIDALGO,Huasca de Ocampo,20.20361111,-98.57761472,179
HIDALGO,Huautla,21.03138667,-98.28682083,1644
HIDALGO,Huazalingo,20.9803025,-98.50774833,287
HIDALGO,Huehuetla,20.46030556,-98.07842444,1554
HIDALGO,Huejutla de Reyes,21.13921194,-98.420595,21476
HIDALGO,Huichapan,20.37531306,-99.65118056,5088
HIDALGO,Ixmiquilpan,20.48486778,-99.21877361,20404
HIDALGO,Jacala de Ledezma,21.00829639,-99.18856889,2265
HIDALGO,Jaltocán,21.13313194,-98.53832389,2579
HIDALGO,Juárez Hidalgo,20.78371667,-98.82886111,193
HIDALGO,Lolotla,20.84116444,-98.71728889,267
HIDALGO,Metepec,20.23841028,-98.32216444,971
HIDALGO,San Agustín Metzquititlán,20.53260194,-98.63862111,934
HIDALGO,Metztitlán,20.5947,-98.76414444,1681
HIDALGO,Mineral del Chico,20.21557056,-98.73122889,284
HIDALGO,Mineral del Monte,20.14049111,-98.67153,5601
HIDALGO,La Misión,21.09941944,-99.12318667,202
HIDALGO,Mixquiahuala de Juárez,20.22938,-99.21379806,14290
HIDALGO,Molango de Escamilla,20.78649833,-98.73081361,2379
HIDALGO,Nicolás Flores,20.76777778,-99.15055556,183
HIDALGO,Nopala de Villagrán,20.25189028,-99.64423833,593
HIDALGO,Omitlán de Juárez,20.1695,-98.64863889,514
HIDALGO,San Felipe Orizatlán,21.17094361,-98.60781528,3590
HIDALGO,Pacula,21.05082083,-99.29609917,223
HIDALGO,Pachuca de Soto,20.12235972,-98.73700056,158191
HIDALGO,Pisaflores,21.19478194,-99.00599722,1243
HIDALGO,Progreso de Obregón,20.24819528,-99.18935889,8836
HIDALGO,Mineral de la Reforma,20.07237139,-98.69603472,5085
HIDALGO,San Agustín Tlaxiaca,20.11566083,-98.8867775,6441
HIDALGO,San Bartolo Tutotepec,20.39914278,-98.20205972,1431
HIDALGO,San Salvador,20.28456806,-99.01560389,606
HIDALGO,Santiago de Anaya,20.38258194,-98.9639525,1252
HIDALGO,Santiago Tulantepec de Lugo Guerrero,20.03919306,-98.35700639,8638
HIDALGO,Singuilucan,19.9675,-98.51722222,2099
HIDALGO,Tasquillo,20.55177222,-99.31255611,1855
HIDALGO,Tecozautla,20.53387278,-99.63492389,3509
HIDALGO,Tenango de Doria,20.33805556,-98.22672861,1347
HIDALGO,Tepeapulco,19.78567389,-98.55366167,7833
HIDALGO,Tepehuacán de Guerrero,21.01408444,-98.84373278,597
HIDALGO,Tepeji del Río de Ocampo,19.90521722,-99.34181417,18474
HIDALGO,Tepetitlán,20.18694861,-99.38033833,476
HIDALGO,Tetepango,20.102655,-99.15612333,4072
HIDALGO,Villa de Tezontepec,19.87986083,-98.81929,3303
HIDALGO,Tezontepec de Aldama,20.19276167,-99.27268278,2903
HIDALGO,Tianguistengo,20.7282125,-98.63085111,814
HIDALGO,Tizayuca,19.84108889,-98.98158417,30484
HIDALGO,Tlahuelilpan,20.13062722,-99.23467972,4162
HIDALGO,Tlahuiltepa,20.92391306,-98.95020111,130
HIDALGO,Tlanalapa,19.81789417,-98.60391306,3638
HIDALGO,Tlanchinol,20.98934556,-98.66028444,2825
HIDALGO,Tlaxcoapan,20.09161444,-99.22159333,7357
HIDALGO,Tolcayuca,19.95659111,-98.92176111,4374
HIDALGO,Tula de Allende,20.05521972,-99.34318889,14523
HIDALGO,Tulancingo de Bravo,20.080605,-98.36807278,55729
HIDALGO,Xochiatipan,20.83548333,-98.28453139,804
HIDALGO,Xochicoatlán,20.77685472,-98.67972417,546
HIDALGO,Yahualica,20.95164889,-98.38286722,578
HIDALGO,Zacualtipán de Ángeles,20.64518139,-98.65362694,14802
HIDALGO,Zapotlán de Juárez,19.97404722,-98.86188278,2637
HIDALGO,Zempoala,19.91539667,-98.66813056,3862
HIDALGO,Zimapán,20.73806889,-99.38311306,6634
JALISCO,Acatic,20.77944444,-102.9052778,6579
JALISCO,Acatlán de Juárez,20.42138889,-103.5872222,5289
JALISCO,Ahualulco de Mercado,20.70055556,-103.975,8452
JALISCO,Amacueca,20.01055556,-103.5961111,1302
JALISCO,Amatitán,20.835,-103.73,5694
JALISCO,Ameca,20.54861111,-104.0430556,18551
JALISCO,San Juanito de Escobedo,20.8004675,-104.0009858,2471
JALISCO,Arandas,20.70555556,-102.3402778,31400
JALISCO,El Arenal,20.77611111,-103.6938889,5825
JALISCO,Atemajac de Brizuela,20.13944944,-103.7245356,2410
JALISCO,Atengo,20.27555556,-104.2344444,656
JALISCO,Atenguillo,20.41472222,-104.4925,712
JALISCO,Atotonilco el Alto,20.55055556,-102.5041667,14592
JALISCO,Atoyac,20.01055556,-103.5163889,2670
JALISCO,Autlán de Navarro,19.77138889,-104.3652778,27104
JALISCO,Ayotlán,20.52805556,-102.3283333,6953
JALISCO,Ayutla,20.12916667,-104.3477778,3562
JALISCO,La Barca,20.29027778,-102.5419444,18722
JALISCO,Bolaños,21.83087,-103.7814997,392
JALISCO,Cabo Corrientes,20.31833333,-105.3238889,1923
JALISCO,Casimiro Castillo,19.60361111,-104.4347222,5498
JALISCO,Cihuatlán,19.23834333,-104.5629978,9236
JALISCO,Zapotlán el Grande,19.70861111,-103.4641667,59534
JALISCO,Cocula,20.3675,-103.8241667,8187
JALISCO,Colotlán,22.11722222,-103.2647222,7275
JALISCO,Concepción de Buenos Aires,19.97861111,-103.2572222,2358
JALISCO,Cuautitlán de García Barragán,19.44972222,-104.3569444,1272
JALISCO,Cuautla,20.20138889,-104.4075,503
JALISCO,Cuquío,20.9275,-103.0238889,2248
JALISCO,Chapala,20.29333333,-103.1897222,12410
JALISCO,Chimaltitán,21.77886528,-103.7807058,241
JALISCO,Chiquilistlán,20.08861111,-103.8580556,1725
JALISCO,Degollado,20.4475,-102.135,5181
JALISCO,Ejutla,19.90638889,-104.1619444,597
JALISCO,Encarnación de Díaz,21.52444444,-102.2330556,13844
JALISCO,Etzatlán,20.76722222,-104.0783333,7340
JALISCO,El Grullo,19.8075,-104.2155556,11828
JALISCO,Guachinango,20.57638889,-104.3772222,826
JALISCO,Guadalajara,20.67638889,-103.3422222,747406
JALISCO,Hostotipaquillo,21.05805556,-104.0502778,1422
JALISCO,Huejúcar,22.36222222,-103.2116667,1602
JALISCO,Huejuquilla el Alto,22.62861111,-103.8941667,2529
JALISCO,La Huerta,19.485,-104.6433333,3824
JALISCO,Ixtlahuacán de los Membrillos,20.34913611,-103.1929661,4728
JALISCO,Ixtlahuacán del Río,20.86416667,-103.2391667,3308
JALISCO,Jalostotitlán,21.16861111,-102.4611111,11984
JALISCO,Jamay,20.29449972,-102.7097169,8850
JALISCO,Jesús María,20.6075,-102.22,4714
JALISCO,Jilotlán de los Dolores,19.37055556,-103.0197222,779
JALISCO,Jocotepec,20.28444444,-103.4252778,10473
JALISCO,Juanacatlán,20.50944444,-103.1672222,4544
JALISCO,Juchitlán,20.08385556,-104.0962492,1494
JALISCO,Lagos de Moreno,21.35638889,-101.9291667,57694
JALISCO,El Limón,19.82444444,-104.1522222,1505
JALISCO,Magdalena,20.90638889,-103.9761111,7528
JALISCO,Santa María del Oro,19.5875,-102.9083333,261
JALISCO,La Manzanilla de la Paz,20.00444444,-103.15,1200
JALISCO,Mascota,20.52555556,-104.7822222,4666
JALISCO,Mazamitla,19.91722222,-103.0202778,4120
JALISCO,Mexticacán,21.26305556,-102.7777778,1266
JALISCO,Mezquitic,22.39,-103.7281225,977
JALISCO,Mixtlán,20.44055556,-104.4088889,734
JALISCO,Ocotlán,20.35138889,-102.7680556,47544
JALISCO,Ojuelos de Jalisco,21.86416667,-101.5933333,6963
JALISCO,Pihuamo,19.25243917,-103.3750375,3022
JALISCO,Poncitlán,20.38138889,-102.9241667,6969
JALISCO,Puerto Vallarta,20.61361111,-105.2272222,127026
JALISCO,Villa Purificación,19.71916667,-104.605,2915
JALISCO,Quitupan,19.92765139,-102.8721525,583
JALISCO,El Salto,20.51944444,-103.1816667,13613
JALISCO,San Cristóbal de la Barranca,21.04444444,-103.4291667,353
JALISCO,San Diego de Alejandría,20.99305556,-101.9936111,2800
JALISCO,San Juan de los Lagos,21.24777778,-102.3327778,27357
JALISCO,San Julián,21.00972222,-102.1808333,6830
JALISCO,San Marcos,20.79,-104.1975,1332
JALISCO,San Martín de Bolaños,21.68355639,-103.8141989,730
JALISCO,San Martín Hidalgo,20.435,-103.9286111,4316
JALISCO,San Miguel el Alto,21.03055556,-102.3980556,13252
JALISCO,Gómez Farías,19.79444444,-103.4730556,4547
JALISCO,San Sebastián del Oeste,20.76083333,-104.8516667,323
JALISCO,Santa María de los Ángeles,22.17333333,-103.2230556,351
JALISCO,Sayula,19.88361111,-103.5972222,14047
JALISCO,Tala,20.6525,-103.7027778,20755
JALISCO,Talpa de Allende,20.38138889,-104.8180556,5582
JALISCO,Tamazula de Gordiano,19.67638889,-103.25,8886
JALISCO,Tapalpa,19.94555556,-103.7541667,3034
JALISCO,Tecalitlán,19.46944444,-103.3066667,6163
JALISCO,Tecolotlán,20.20361111,-104.045,4930
JALISCO,Techaluta de Montenegro,20.07416667,-103.5516667,1012
JALISCO,Tenamaxtlán,20.21861111,-104.1602778,2440
JALISCO,Teocaltiche,21.43444444,-102.5702778,11965
JALISCO,Teocuitatlán de Corona,20.09333333,-103.38,1832
JALISCO,Tepatitlán de Morelos,20.8175,-102.7572222,52016
JALISCO,Tequila,20.87943944,-103.8356467,15336
JALISCO,Teuchitlán,20.68527778,-103.8491667,1788
JALISCO,Tizapán el Alto,20.15861111,-103.0391667,7566
JALISCO,Tlajomulco de Zúñiga,20.47361111,-103.4430556,22428
JALISCO,San Pedro Tlaquepaque,20.63861111,-103.3072222,338064
JALISCO,Tolimán,19.6,-103.9144444,664
JALISCO,Tomatlán,19.941525,-105.2452725,5099
JALISCO,Tonalá,20.62333333,-103.2455556,231648
JALISCO,Tonaya,19.78416667,-103.9708333,1911
JALISCO,Tonila,19.41083333,-103.5494444,1417
JALISCO,Totatiche,21.92861111,-103.4436111,466
JALISCO,Tototlán,20.54361361,-102.7892175,6615
JALISCO,Tuxcacuesco,19.69721972,-103.9835869,711
JALISCO,Tuxcueca,20.15555556,-103.1838889,791
JALISCO,Tuxpan,19.55444444,-103.3722222,14750
JALISCO,Unión de San Antonio,21.12805556,-102.0072222,4374
JALISCO,Unión de Tula,19.95444444,-104.2644444,4456
JALISCO,Valle de Guadalupe,21.01059806,-102.6177669,2221
JALISCO,Valle de Juárez,19.93361111,-102.9402778,2125
JALISCO,San Gabriel,19.74778278,-103.7664581,2433
JALISCO,Villa Corona,20.41638889,-103.6613889,3859
JALISCO,Villa Guerrero,21.98305556,-103.5966667,1674
JALISCO,Villa Hidalgo,21.67444444,-102.5852778,7545
JALISCO,Cañadas de Obregón,21.14861111,-102.6852778,1175
JALISCO,Yahualica de González Gallo,21.1825,-102.8872222,6959
JALISCO,Zacoalco de Torres,20.22861111,-103.5652778,9642
JALISCO,Zapopan,20.72096194,-103.3889878,674613
JALISCO,Zapotiltic,19.62555556,-103.4125,13453
JALISCO,Zapotitlán de Vadillo,19.54814194,-103.8127072,1824
JALISCO,Zapotlán del Rey,20.46638889,-102.9261111,1593
JALISCO,Zapotlanejo,20.6225,-103.0641667,17975
JALISCO,San Ignacio Cerro Gordo,20.74305556,-102.5361111,4788
ESTADO DE MÉXICO,Acambay de Ruíz Castañeda,19.95622861,-99.84403194,3117
ESTADO DE MÉXICO,Acolman,19.63550889,-98.91190556,3230
ESTADO DE MÉXICO,Aculco,20.09938611,-99.82799056,1107
ESTADO DE MÉXICO,Almoloya de Alquisiras,18.86723278,-99.89380028,1716
ESTADO DE MÉXICO,Almoloya de Juárez,19.36929306,-99.75855194,1678
ESTADO DE MÉXICO,Almoloya del Río,19.15938639,-99.48884167,5632
ESTADO DE MÉXICO,Amanalco,19.25237694,-100.0199819,744
ESTADO DE MÉXICO,Amatepec,18.68349056,-100.1860478,896
ESTADO DE MÉXICO,Amecameca,19.128685,-98.76981056,16052
ESTADO DE MÉXICO,Apaxco,19.97532472,-99.17416278,7549
ESTADO DE MÉXICO,Atenco,19.55933917,-98.9133475,9619
ESTADO DE MÉXICO,Atizapán,19.17675778,-99.48794194,5515
ESTADO DE MÉXICO,Atizapán de Zaragoza,19.54317056,-99.23504083,272217
ESTADO DE MÉXICO,Atlacomulco,19.80002861,-99.87425389,12034
ESTADO DE MÉXICO,Atlautla,19.03086083,-98.78266639,6244
ESTADO DE MÉXICO,Axapusco,19.72445806,-98.75833028,1805
ESTADO DE MÉXICO,Ayapango,19.12722139,-98.80250556,1782
ESTADO DE MÉXICO,Calimaya,19.163225,-99.61866528,6083
ESTADO DE MÉXICO,Capulhuac,19.19312333,-99.46440833,11742
ESTADO DE MÉXICO,Coacalco de Berriozábal,19.62929889,-99.10437722,151635
ESTADO DE MÉXICO,Coatepec Harinas,18.92571056,-99.76851861,3400
ESTADO DE MÉXICO,Cocotitlán,19.23085556,-98.86195194,4707
ESTADO DE MÉXICO,Coyotepec,19.7755075,-99.20798028,18538
ESTADO DE MÉXICO,Cuautitlán,19.66506139,-99.17863028,63174
ESTADO DE MÉXICO,Chalco,19.26113167,-98.89565472,86235
ESTADO DE MÉXICO,Chapa de Mota,19.81346528,-99.525995,389
ESTADO DE MÉXICO,Chapultepec,19.2011625,-99.56187278,3400
ESTADO DE MÉXICO,Chiautla,19.54865194,-98.88134889,5832
ESTADO DE MÉXICO,Chicoloapan,19.41676528,-98.90201222,97796
ESTADO DE MÉXICO,Chiconcuac,19.55272222,-98.89530694,13491
ESTADO DE MÉXICO,Chimalhuacán,19.4169075,-98.94529917,343132
ESTADO DE MÉXICO,Donato Guerra,19.30853333,-100.1441614,468
ESTADO DE MÉXICO,Ecatepec de Morelos,19.59906944,-99.04915861,838931
ESTADO DE MÉXICO,Ecatzingo,18.958715,-98.75259806,3690
ESTADO DE MÉXICO,Huehuetoca,19.83362167,-99.20413806,6024
ESTADO DE MÉXICO,Hueypoxtla,19.90703944,-99.07837,2381
ESTADO DE MÉXICO,Huixquilucan,19.36018,-99.35169167,5512
ESTADO DE MÉXICO,Isidro Fabela,19.55559139,-99.41738,1037
ESTADO DE MÉXICO,Ixtapaluca,19.31310444,-98.88424722,187014
ESTADO DE MÉXICO,Ixtapan de la Sal,18.84460556,-99.67582278,9994
ESTADO DE MÉXICO,Ixtapan del Oro,19.26226,-100.2642156,473
ESTADO DE MÉXICO,Ixtlahuaca,19.56981389,-99.76926722,3998
ESTADO DE MÉXICO,Xalatlaco,19.18438667,-99.41373611,9164
ESTADO DE MÉXICO,Jaltenco,19.75222111,-99.09403139,6616
ESTADO DE MÉXICO,Jilotepec,19.95283444,-99.53282861,6707
ESTADO DE MÉXICO,Jilotzingo,19.53891806,-99.397135,444
ESTADO DE MÉXICO,Jiquipilco,19.55759889,-99.60859972,990
ESTADO DE MÉXICO,Jocotitlán,19.71181778,-99.7857975,4095
ESTADO DE MÉXICO,Joquicingo,19.04922833,-99.53181778,2061
ESTADO DE MÉXICO,Juchitepec,19.10191194,-98.88091556,8570
ESTADO DE MÉXICO,Lerma,19.28537333,-99.51181694,17530
ESTADO DE MÉXICO,Malinalco,18.95234167,-99.49756528,4547
ESTADO DE MÉXICO,Melchor Ocampo,19.71041389,-99.14345833,22277
ESTADO DE MÉXICO,Metepec,19.25242,-99.60449167,15646
ESTADO DE MÉXICO,Mexicaltzingo,19.21110944,-99.58685389,4752
ESTADO DE MÉXICO,Morelos,19.78697833,-99.66777028,946
ESTADO DE MÉXICO,Naucalpan de Juárez,19.47880278,-99.23321806,402079
ESTADO DE MÉXICO,Nezahualcóyotl,19.40876333,-99.0182,557711
ESTADO DE MÉXICO,Nextlalpan,19.73986639,-99.0803375,8654
ESTADO DE MÉXICO,Nicolás Romero,19.625715,-99.31589806,162483
ESTADO DE MÉXICO,Nopaltepec,19.77879833,-98.70954417,1908
ESTADO DE MÉXICO,Ocoyoacac,19.26928083,-99.45569528,14456
ESTADO DE MÉXICO,Ocuilan,18.97909194,-99.41694417,1150
ESTADO DE MÉXICO,El Oro,19.80214306,-100.1306647,3344
ESTADO DE MÉXICO,Otumba,19.69985361,-98.75769417,4917
ESTADO DE MÉXICO,Otzoloapan,19.11740833,-100.2977117,437
ESTADO DE MÉXICO,Otzolotepec,19.41620639,-99.55858944,6030
ESTADO DE MÉXICO,Ozumba,19.03917694,-98.79538944,9282
ESTADO DE MÉXICO,Papalotla,19.5633775,-98.85820917,2236
ESTADO DE MÉXICO,La Paz,19.35838694,-98.97660167,43814
ESTADO DE MÉXICO,Polotitlán,20.22380944,-99.814745,1610
ESTADO DE MÉXICO,Rayón,19.14801056,-99.58173917,4179
ESTADO DE MÉXICO,San Antonio la Isla,19.16409944,-99.56933583,8331
ESTADO DE MÉXICO,San Felipe del Progreso,19.71392417,-99.95329444,2617
ESTADO DE MÉXICO,San Martín de las Pirámides,19.70484333,-98.83452444,7252
ESTADO DE MÉXICO,San Mateo Atenco,19.26416667,-99.52972222,44918
ESTADO DE MÉXICO,San Simón de Guerrero,19.02308889,-100.0072781,443
ESTADO DE MÉXICO,Santo Tomás,19.18297222,-100.2597811,318
ESTADO DE MÉXICO,Soyaniquilpan de Juárez,20.01389111,-99.52789611,2644
ESTADO DE MÉXICO,Sultepec,18.85854583,-99.96642972,1884
ESTADO DE MÉXICO,Tecámac,19.71020722,-98.9671425,9493
ESTADO DE MÉXICO,Tejupilco,18.90569639,-100.1534028,14719
ESTADO DE MÉXICO,Temamatla,19.20274056,-98.86990222,2778
ESTADO DE MÉXICO,Temascalapa,19.82785778,-98.90083222,3588
ESTADO DE MÉXICO,Temascalcingo,19.91591139,-100.0040806,7157
ESTADO DE MÉXICO,Temascaltepec,19.04307472,-100.0413594,1399
ESTADO DE MÉXICO,Temoaya,19.47001389,-99.59490611,1732
ESTADO DE MÉXICO,Tenancingo,18.96183028,-99.59384167,7797
ESTADO DE MÉXICO,Tenango del Aire,19.15700333,-98.86129556,2340
ESTADO DE MÉXICO,Tenango del Valle,19.10376083,-99.591575,12145
ESTADO DE MÉXICO,Teoloyucan,19.74546556,-99.183065,25344
ESTADO DE MÉXICO,Teotihuacán,19.68547944,-98.86862778,12150
ESTADO DE MÉXICO,Tepetlaoxtoc,19.57336528,-98.81971861,3363
ESTADO DE MÉXICO,Tepetlixpa,19.029515,-98.81970806,7313
ESTADO DE MÉXICO,Tepotzotlán,19.71377806,-99.22351444,21153
ESTADO DE MÉXICO,Tequixquiac,19.91027667,-99.14891306,13073
ESTADO DE MÉXICO,Texcaltitlán,18.93038944,-99.93927667,1366
ESTADO DE MÉXICO,Texcalyacac,19.1322275,-99.50306917,2325
ESTADO DE MÉXICO,Texcoco,19.51343972,-98.88148444,18705
ESTADO DE MÉXICO,Tezoyuca,19.5903125,-98.90850361,9105
ESTADO DE MÉXICO,Tianguistenco,19.18121417,-99.46743889,7147
ESTADO DE MÉXICO,Timilpan,19.87616917,-99.73377889,410
ESTADO DE MÉXICO,Tlalmanalco,19.20590333,-98.80255361,7198
ESTADO DE MÉXICO,Tlalnepantla de Baz,19.53852333,-99.19519833,346361
ESTADO DE MÉXICO,Tlatlaya,18.61784167,-100.2078311,338
ESTADO DE MÉXICO,Toluca,19.29348806,-99.65731667,117499
ESTADO DE MÉXICO,Tonatico,18.80201944,-99.670935,3618
ESTADO DE MÉXICO,Tultepec,19.68554806,-99.12860528,37352
ESTADO DE MÉXICO,Tultitlán,19.64751333,-99.169195,15586
ESTADO DE MÉXICO,Valle de Bravo,19.19439472,-100.1316069,13284
ESTADO DE MÉXICO,Villa de Allende,19.37341667,-100.1493561,849
ESTADO DE MÉXICO,Villa del Carbón,19.72758833,-99.46307972,4764
ESTADO DE MÉXICO,Villa Guerrero,18.96170861,-99.64199972,5555
ESTADO DE MÉXICO,Villa Victoria,19.44187556,-99.99505028,2477
ESTADO DE MÉXICO,Xonacatlán,19.40441917,-99.53039583,11393
ESTADO DE MÉXICO,Zacazonapan,19.07445722,-100.2561158,1141
ESTADO DE MÉXICO,Zacualpan,18.71867028,-99.77562167,1382
ESTADO DE MÉXICO,Zinacantepec,19.28490639,-99.7350375,16427
ESTADO DE MÉXICO,Zumpahuacán,18.84092778,-99.58559556,2120
ESTADO DE MÉXICO,Zumpango,19.79712306,-99.10063389,26642
ESTADO DE MÉXICO,Cuautitlán Izcalli,19.65699556,-99.20928611,269293
ESTADO DE MÉXICO,Valle de Chalco Solidaridad,19.278765,-98.94344861,193964
ESTADO DE MÉXICO,Luvianos,18.92048222,-100.2994464,3709
ESTADO DE MÉXICO,San José del Rincón,19.66104306,-100.1519447,858
ESTADO DE MÉXICO,Tonanitla,19.68816167,-99.05436167,3339
MICHOACÁN,Acuitzio,19.49625194,-101.3328514,3588
MICHOACÁN,Aguililla,18.73423139,-102.7883797,3701
MICHOACÁN,Álvaro Obregón,19.82630583,-101.038485,4034
MICHOACÁN,Angamacutiro,20.14965444,-101.7083108,2435
MICHOACÁN,Angangueo,19.61983306,-100.2855114,1741
MICHOACÁN,Apatzingán,19.08722722,-102.3552644,51286
MICHOACÁN,Aporo,19.67083611,-100.4111278,893
MICHOACÁN,Aquila,18.59913861,-103.5047542,1233
MICHOACÁN,Ario,19.20780722,-101.7093939,8814
MICHOACÁN,Arteaga,18.35569389,-102.2900625,4978
MICHOACÁN,Briseñas,20.27123417,-102.5610575,1712
MICHOACÁN,Buenavista,19.21173528,-102.5878908,6706
MICHOACÁN,Carácuaro,19.01730833,-101.1269908,1674
MICHOACÁN,Coahuayana,18.70247444,-103.6629314,2825
MICHOACÁN,Coalcomán de Vázquez Pallares,18.77709889,-103.1595547,6107
MICHOACÁN,Coeneo,19.82098361,-101.5837508,1637
MICHOACÁN,Contepec,19.95526917,-100.1644572,2063
MICHOACÁN,Copándaro,19.89382389,-101.215305,1092
MICHOACÁN,Cotija,19.81028528,-102.7058219,6542
MICHOACÁN,Cuitzeo,19.96821361,-101.1395842,4882
MICHOACÁN,Charapan,19.65016917,-102.2527378,2042
MICHOACÁN,Charo,19.74667028,-101.0463128,2967
MICHOACÁN,Chavinda,20.00693861,-102.4585847,3007
MICHOACÁN,Cherán,19.68765167,-101.9548161,8044
MICHOACÁN,Chilchota,19.84920694,-102.1194372,4236
MICHOACÁN,Chinicuila,18.75816806,-103.3678003,383
MICHOACÁN,Chucándiro,19.899965,-101.3333914,573
MICHOACÁN,Churintzio,20.15095972,-102.0659206,1113
MICHOACÁN,Churumuco,18.66455778,-101.6465525,1907
MICHOACÁN,Ecuandureo,20.16261556,-102.1945664,2003
MICHOACÁN,Epitacio Huerta,20.13468944,-100.2937219,727
MICHOACÁN,Erongarícuaro,19.58825278,-101.7200861,1455
MICHOACÁN,Gabriel Zamora,19.15980389,-102.053965,5702
MICHOACÁN,Hidalgo,19.68935083,-100.5551614,34305
MICHOACÁN,La Huacana,18.96288694,-101.8088672,4466
MICHOACÁN,Huandacareo,19.98870444,-101.2758533,2810
MICHOACÁN,Huaniqueo,19.89899528,-101.5051514,984
MICHOACÁN,Huetamo,18.62642583,-100.8997247,11529
MICHOACÁN,Huiramba,19.54648111,-101.4379928,1485
MICHOACÁN,Indaparapeo,19.79005944,-100.9684931,3229
MICHOACÁN,Irimbo,19.6974875,-100.4791006,1599
MICHOACÁN,Ixtlán,20.16836611,-102.3946239,2279
MICHOACÁN,Jacona,19.95632194,-102.3060233,31414
MICHOACÁN,Jiménez,19.92226639,-101.7492928,1638
MICHOACÁN,Jiquilpan,19.98971917,-102.7185633,11833
MICHOACÁN,Juárez,19.31227583,-100.4327914,2005
MICHOACÁN,Jungapeo,19.45872528,-100.4946119,2277
MICHOACÁN,Lagunillas,19.56462306,-101.4147792,1020
MICHOACÁN,Madero,19.39212056,-101.2776156,3420
MICHOACÁN,Maravatío,19.89167361,-100.4416672,20747
MICHOACÁN,Marcos Castellanos,19.99023806,-103.0215042,5318
MICHOACÁN,Lázaro Cárdenas,17.96233417,-102.1979808,43789
MICHOACÁN,Morelia,19.70338389,-101.1920464,391022
MICHOACÁN,Morelos,20.00425194,-101.4123858,1202
MICHOACÁN,Múgica,19.02880472,-102.0867342,15705
MICHOACÁN,Nahuatzen,19.65407333,-101.9171369,5377
MICHOACÁN,Nocupétaro,19.04329667,-101.1622292,1785
MICHOACÁN,Nuevo Parangaricutiro,19.41664389,-102.1298797,8762
MICHOACÁN,Nuevo Urecho,19.16587222,-101.8688469,667
MICHOACÁN,Numarán,20.25489972,-101.9471972,1967
MICHOACÁN,Ocampo,19.58384778,-100.3392819,2048
MICHOACÁN,Pajacuarán,20.11689389,-102.5655133,4649
MICHOACÁN,Panindícuaro,19.98395889,-101.7614597,2355
MICHOACÁN,Parácuaro,19.14577306,-102.2200481,1933
MICHOACÁN,Paracho,19.64729667,-102.0484675,10669
MICHOACÁN,Pátzcuaro,19.51359778,-101.6101164,31345
MICHOACÁN,Penjamillo,20.10446833,-101.9336714,1467
MICHOACÁN,Peribán,19.52072694,-102.4161883,8453
MICHOACÁN,La Piedad,20.34145028,-102.0225539,43874
MICHOACÁN,Purépero,19.90996306,-102.0067406,6524
MICHOACÁN,Puruándiro,20.08866528,-101.5152003,15828
MICHOACÁN,Queréndaro,19.8100275,-100.8834875,4130
MICHOACÁN,Quiroga,19.66378611,-101.5240036,7933
MICHOACÁN,Cojumatlán de Régules,20.11899833,-102.851005,3192
MICHOACÁN,Los Reyes,19.58897417,-102.4746789,26331
MICHOACÁN,Sahuayo,20.05768389,-102.7167972,37962
MICHOACÁN,San Lucas,18.59141083,-100.7847522,1602
MICHOACÁN,Santa Ana Maya,20.00839167,-101.0217628,3064
MICHOACÁN,Salvador Escalante,19.40608472,-101.6397978,7981
MICHOACÁN,Senguio,19.73334083,-100.3524072,1284
MICHOACÁN,Susupuato,19.21515417,-100.4083336,256
MICHOACÁN,Tacámbaro,19.23553667,-101.4573281,15160
MICHOACÁN,Tancítaro,19.3374975,-102.3630342,3995
MICHOACÁN,Tangamandapio,19.953995,-102.4328006,5276
MICHOACÁN,Tangancícuaro,19.88823444,-102.2084533,7436
MICHOACÁN,Tanhuato,20.28381111,-102.3276408,3776
MICHOACÁN,Taretan,19.33456222,-101.9179042,2987
MICHOACÁN,Tarímbaro,19.79566556,-101.1763919,3330
MICHOACÁN,Tepalcatepec,19.19136667,-102.8437078,8885
MICHOACÁN,Tingambato,19.50189389,-101.8534764,4237
MICHOACÁN,Tingüindín,19.73895194,-102.4830833,3826
MICHOACÁN,Tiquicheo de Nicolás Romero,18.90048944,-100.7364539,1573
MICHOACÁN,Tlalpujahua,19.80530417,-100.1735928,1723
MICHOACÁN,Tlazazalca,19.97123611,-102.0566794,1326
MICHOACÁN,Tocumbo,19.70329278,-102.52096,894
MICHOACÁN,Tumbiscatío,18.52480111,-102.3750225,974
MICHOACÁN,Turicato,19.05375806,-101.4197939,926
MICHOACÁN,Tuxpan,19.56796056,-100.4637783,4444
MICHOACÁN,Tuzantla,19.20760639,-100.5730639,1325
MICHOACÁN,Tzintzuntzan,19.62543806,-101.5769511,1849
MICHOACÁN,Tzitzio,19.58551,-100.9246514,420
MICHOACÁN,Uruapan,19.4208875,-102.0627992,151483
MICHOACÁN,Venustiano Carranza,20.11597417,-102.6523611,5739
MICHOACÁN,Villamar,20.02085583,-102.5957786,1187
MICHOACÁN,Vista Hermosa,20.273115,-102.4736461,5502
MICHOACÁN,Yurécuaro,20.34108889,-102.2824253,13168
MICHOACÁN,Zacapu,19.81861861,-101.7928597,27186
MICHOACÁN,Zamora,19.98357944,-102.2859578,80663
MICHOACÁN,Zináparo,20.17318889,-101.9987742,804
MICHOACÁN,Zinapécuaro,19.86027472,-100.8275831,7521
MICHOACÁN,Ziracuaretiro,19.41713722,-101.9101883,1453
MICHOACÁN,Zitácuaro,19.43718028,-100.3574861,43616
MICHOACÁN,José Sixto Verduzco,20.30218417,-101.5968558,3180
MORELOS,Amacuzac,18.60000167,-99.36951417,2693
MORELOS,Atlatlahucan,18.93627083,-98.89917528,4550
MORELOS,Axochiapan,18.50240639,-98.75407861,9167
MORELOS,Ayala,18.76708667,-98.98214167,3245
MORELOS,Coatlán del Río,18.74418556,-99.43480056,888
MORELOS,Cuautla,18.81278833,-98.95526472,82833
MORELOS,Cuernavaca,18.92178278,-99.23489694,183525
MORELOS,Emiliano Zapata,18.84098417,-99.18324278,33281
MORELOS,Huitzilac,19.02903306,-99.26745278,2707
MORELOS,Jantetelco,18.71520583,-98.77730083,2411
MORELOS,Jiutepec,18.88197444,-99.17719833,92495
MORELOS,Jojutla,18.61656639,-99.18104361,8665
MORELOS,Jonacatepec de Leandro Valle,18.68069028,-98.80322306,4224
MORELOS,Mazatepec,18.73318444,-99.36697194,1941
MORELOS,Miacatlán,18.7699825,-99.36026528,3806
MORELOS,Ocuituco,18.87769278,-98.7756975,2797
MORELOS,Puente de Ixtla,18.616875,-99.32370139,10152
MORELOS,Temixco,18.84527333,-99.22414306,54338
MORELOS,Tepalcingo,18.59473639,-98.84435667,6887
MORELOS,Tepoztlán,18.98645722,-99.10122694,8685
MORELOS,Tetecala,18.72896722,-99.39858306,2348
MORELOS,Tetela del Volcán,18.893525,-98.73006556,6067
MORELOS,Tlalnepantla,19.00792694,-98.99735222,2152
MORELOS,Tlaltizapán de Zapata,18.68296222,-99.11817889,5237
MORELOS,Tlaquiltenango,18.63003,-99.16266222,9097
MORELOS,Tlayacapan,18.95661722,-98.9831175,4672
MORELOS,Totolapan,18.98722333,-98.92143889,3452
MORELOS,Xochitepec,18.78186556,-99.23146278,11221
MORELOS,Yautepec,18.88606167,-99.06075417,23255
MORELOS,Yecapixtla,18.88341972,-98.86814361,9748
MORELOS,Zacatepec,18.65540806,-99.19427889,9744
MORELOS,Zacualpan de Amilpas,18.78439306,-98.76542306,1925
MORELOS,Temoac,18.772315,-98.77804306,3247
MORELOS,Coatetelco,18.73048583,-99.3270575,4650
MORELOS,Xoxocotla,18.68657278,-99.24489472,12502
MORELOS,Hueyapan,18.88513444,-98.69068417,3546
NAYARIT,Acaponeta,22.4893875,-105.3601842,9322
NAYARIT,Ahuacatlán,21.05058694,-104.4846644,3615
NAYARIT,Amatlán de Cañas,20.80778222,-104.4053889,1609
NAYARIT,Compostela,21.23752972,-104.9005972,10150
NAYARIT,Huajicori,22.63726083,-105.319985,1251
NAYARIT,Ixtlán del Río,21.03505528,-104.3689111,12229
NAYARIT,Jala,21.10482111,-104.4382167,2706
NAYARIT,Xalisco,21.44368722,-104.8997356,24730
NAYARIT,Del Nayar,22.251125,-104.5179425,1056
NAYARIT,Rosamorada,22.12254528,-105.2041303,2034
NAYARIT,Ruíz,21.95025278,-105.1450567,7254
NAYARIT,San Blas,21.54173806,-105.2860464,6138
NAYARIT,San Pedro Lagunillas,21.22190611,-104.7511097,1710
NAYARIT,Santa María del Oro,21.33318944,-104.5872067,2625
NAYARIT,Santiago Ixcuintla,21.80833583,-105.2060444,9255
NAYARIT,Tecuala,22.39504111,-105.4560339,6734
NAYARIT,Tepic,21.50741306,-104.8937992,195162
NAYARIT,Tuxpan,21.94479028,-105.2980872,11311
NAYARIT,La Yesca,21.31888528,-104.0097639,191
NAYARIT,Bahía de Banderas,20.80676,-105.2479242,4564
NUEVO LEÓN,Abasolo,25.9453375,-100.3999883,721
NUEVO LEÓN,Agualeguas,26.31091472,-99.53938917,826
NUEVO LEÓN,Los Aldamas,26.06414333,-99.19673333,258
NUEVO LEÓN,Allende,25.2869,-100.0083239,14071
NUEVO LEÓN,Anáhuac,27.24064722,-100.1324361,7048
NUEVO LEÓN,Apodaca,25.78129444,-100.1892278,280440
NUEVO LEÓN,Aramberri,24.10058611,-99.81806667,1166
NUEVO LEÓN,Bustamante,26.53466389,-100.5027056,1331
NUEVO LEÓN,Cadereyta Jiménez,25.59100833,-100.0015944,35972
NUEVO LEÓN,El Carmen,25.93222778,-100.3641222,5506
NUEVO LEÓN,Cerralvo,26.08986944,-99.61473333,2888
NUEVO LEÓN,Ciénega de Flores,25.95206944,-100.1681083,14444
NUEVO LEÓN,China,25.70591389,-99.23931667,3595
NUEVO LEÓN,Doctor Arroyo,23.67469167,-100.1822556,5224
NUEVO LEÓN,Doctor Coss,25.92589722,-99.18437222,260
NUEVO LEÓN,Doctor González,25.85882944,-99.94186889,746
NUEVO LEÓN,Galeana,24.82626667,-100.0774278,3354
NUEVO LEÓN,García,25.80049167,-100.5854694,111912
NUEVO LEÓN,San Pedro Garza García,25.66516944,-100.4024667,66549
NUEVO LEÓN,General Bravo,25.79329722,-99.18123333,1720
NUEVO LEÓN,General Escobedo,25.80798611,-100.3226417,228551
NUEVO LEÓN,General Terán,25.25718611,-99.68581389,2761
NUEVO LEÓN,General Treviño,26.22696944,-99.48408056,387
NUEVO LEÓN,General Zaragoza,23.97326111,-99.77239167,1143
NUEVO LEÓN,General Zuazua,25.89697778,-100.1082472,4852
NUEVO LEÓN,Guadalupe,25.677325,-100.2598972,318306
NUEVO LEÓN,Los Herreras,25.90560556,-99.40329722,493
NUEVO LEÓN,Higueras,25.96195556,-100.01435,509
NUEVO LEÓN,Hualahuises,24.88464167,-99.67322778,2294
NUEVO LEÓN,Iturbide,24.72597778,-99.90526111,668
NUEVO LEÓN,Juárez,25.646225,-100.0908806,152069
NUEVO LEÓN,Lampazos de Naranjo,27.02531222,-100.5043236,2143
NUEVO LEÓN,Linares,24.85965278,-99.56786944,32341
NUEVO LEÓN,Marín,25.87930222,-100.0340486,1260
NUEVO LEÓN,Melchor Ocampo,26.058525,-99.54228333,336
NUEVO LEÓN,Mier y Noriega,23.42311944,-100.1196694,285
NUEVO LEÓN,Mina,26.00125556,-100.5318444,2159
NUEVO LEÓN,Montemorelos,25.18925278,-99.82695833,26715
NUEVO LEÓN,Monterrey,25.66469722,-100.3108917,575150
NUEVO LEÓN,Parás,26.49853889,-99.52542222,276
NUEVO LEÓN,Pesquería,25.78325833,-100.0536778,24667
NUEVO LEÓN,Los Ramones,25.69639167,-99.62403056,571
NUEVO LEÓN,Rayones,25.01812222,-100.0732139,151
NUEVO LEÓN,Sabinas Hidalgo,26.49836944,-100.1811472,15828
NUEVO LEÓN,Salinas Victoria,25.95956667,-100.2915056,7014
NUEVO LEÓN,San Nicolás de los Garza,25.75525278,-100.2895861,204861
NUEVO LEÓN,Hidalgo,25.97565,-100.4468944,7457
NUEVO LEÓN,Santa Catarina,25.67436389,-100.4617472,154410
NUEVO LEÓN,Santiago,25.4271,-100.1530111,20314
NUEVO LEÓN,Vallecillo,26.65967278,-99.98957944,231
NUEVO LEÓN,Villaldama,26.498225,-100.4245611,1079
OAXACA,Abejones,17.43575222,-96.60817417,95
OAXACA,Acatlán de Pérez Figueroa,18.53856333,-96.60761,2979
OAXACA,Asunción Cacalotepec,17.03526417,-95.95656167,257
OAXACA,Asunción Cuyotepeji,17.93090056,-97.6743525,390
OAXACA,Asunción Ixtaltepec,16.50383972,-95.057045,3847
OAXACA,Asunción Nochixtlán,17.45893639,-97.22519861,7606
OAXACA,Asunción Ocotlán,16.75917917,-96.72132556,923
OAXACA,Asunción Tlacolulita,16.30026306,-95.72630528,154
OAXACA,Ayotzintepec,17.67670861,-96.13327083,1414
OAXACA,El Barrio de la Soledad,16.803935,-95.11219,1071
OAXACA,Calihualá,17.5328575,-98.27837611,203
OAXACA,Candelaria Loxicha,15.92633444,-96.49191889,833
OAXACA,Ciénega de Zimatlán,16.89708806,-96.76661833,1344
OAXACA,Ciudad Ixtepec,16.56769833,-95.0987125,12678
OAXACA,Coatecas Altas,16.53675889,-96.66498056,699
OAXACA,Coicoyán de las Flores,17.27289833,-98.27609444,556
OAXACA,La Compañía,16.55823028,-96.81997972,279
OAXACA,Concepción Buenavista,17.87853333,-97.40023306,99
OAXACA,Concepción Pápalo,17.84136528,-96.88136028,192
OAXACA,Constancia del Rosario,17.03782194,-97.94145806,682
OAXACA,Cosolapa,18.60178694,-96.68238611,3914
OAXACA,Cosoltepec,18.14197694,-97.79067194,126
OAXACA,Cuilápam de Guerrero,16.99600139,-96.78059111,7953
OAXACA,Cuyamecalco Villa de Zaragoza,17.96508306,-96.83137639,338
OAXACA,Chahuites,16.28760889,-94.19582389,5722
OAXACA,Chalcatongo de Hidalgo,17.03202889,-97.57098944,1348
OAXACA,Chiquihuitlán de Benito Juárez,17.99543944,-96.7454475,522
OAXACA,Heroica Ciudad de Ejutla de Crespo,16.56427556,-96.73190056,5266
OAXACA,Eloxochitlán de Flores Magón,18.17688083,-96.87609083,314
OAXACA,El Espinal,16.48570972,-95.04283611,3814
OAXACA,Tamazulápam del Espíritu Santo,17.05443583,-96.06510611,1442
OAXACA,Fresnillo de Trujano,17.9080125,-98.13630111,94
OAXACA,Guadalupe Etla,17.17163694,-96.81057556,1010
OAXACA,Guadalupe de Ramírez,17.75605056,-98.16439417,199
OAXACA,Guelatao de Juárez,17.31817333,-96.49368333,290
OAXACA,Guevea de Humboldt,16.79261417,-95.36805583,571
OAXACA,Mesones Hidalgo,16.91535556,-97.96654556,337
OAXACA,Villa Hidalgo,17.18588806,-96.17883444,832
OAXACA,Heroica Ciudad de Huajuapan de León,17.80683722,-97.77623583,28234
OAXACA,Huautepec,18.10197806,-96.79729861,619
OAXACA,Huautla de Jiménez,18.13037722,-96.84616167,5284
OAXACA,Ixtlán de Juárez,17.33152861,-96.48780167,1759
OAXACA,Juchitán de Zaragoza,16.4333075,-95.02163306,45376
OAXACA,Loma Bonita,18.10987111,-95.87997611,15869
OAXACA,Magdalena Apasco,17.24206306,-96.82109083,1620
OAXACA,Magdalena Jaltepec,17.32362056,-97.22127667,234
OAXACA,Santa Magdalena Jicotlán,17.80701667,-97.4706525,42
OAXACA,Magdalena Mixtepec,16.89611167,-96.90772778,250
OAXACA,Magdalena Ocotlán,16.70945528,-96.71236528,463
OAXACA,Magdalena Peñasco,17.23625194,-97.55153861,269
OAXACA,Magdalena Teitipac,16.90662056,-96.55873861,2042
OAXACA,Magdalena Tequisistlán,16.39891694,-95.60290944,1642
OAXACA,Magdalena Tlacotepec,16.50396611,-95.20330583,415
OAXACA,Magdalena Zahuatlán,17.38842556,-97.22902111,139
OAXACA,Mariscala de Juárez,17.86050556,-98.14162056,847
OAXACA,Mártires de Tacubaya,16.53798583,-98.2509125,342
OAXACA,Matías Romero Avendaño,16.87788944,-95.04214944,8507
OAXACA,Mazatlán Villa de Flores,18.03256444,-96.91372111,304
OAXACA,Miahuatlán de Porfirio Díaz,16.3284775,-96.59652417,14491
OAXACA,Mixistlán de la Reforma,17.14683806,-96.11202806,478
OAXACA,Monjas,16.36718611,-96.63676972,220
OAXACA,Natividad,17.29687556,-96.43329361,214
OAXACA,Nazareno Etla,17.17799,-96.82400167,1975
OAXACA,Nejapa de Madero,16.60818139,-95.98044972,1041
OAXACA,Ixpantepec Nieves,17.50668611,-98.04486167,175
OAXACA,Santiago Niltepec,16.56209333,-94.61300417,1393
OAXACA,Oaxaca de Juárez,17.05999306,-96.72545028,138873
OAXACA,Ocotlán de Morelos,16.79164056,-96.67506444,8360
OAXACA,La Pe,16.62995861,-96.7996575,666
OAXACA,Pinotepa de Don Luis,16.42844167,-97.97743528,2380
OAXACA,Pluma Hidalgo,15.92584611,-96.41944333,305
OAXACA,San José del Progreso,16.68512806,-96.68552861,1519
OAXACA,Putla Villa de Guerrero,17.02620528,-97.92815278,6408
OAXACA,Santa Catarina Quioquitani,16.31565417,-96.28496472,122
OAXACA,Reforma de Pineda,16.39931889,-94.45843389,1138
OAXACA,La Reforma,16.62331472,-97.84449778,503
OAXACA,Reyes Etla,17.20555611,-96.81009278,1160
OAXACA,Rojas de Cuauhtémoc,17.00828361,-96.61864611,640
OAXACA,Salina Cruz,16.175885,-95.19215861,36213
OAXACA,San Agustín Amatengo,16.50994333,-96.789325,629
OAXACA,San Agustín Atenango,17.61169917,-98.0151825,409
OAXACA,San Agustín Chayuco,16.40238222,-97.80751833,638
OAXACA,San Agustín de las Juntas,17.01166,-96.71144139,4190
OAXACA,San Agustín Etla,17.18908306,-96.76442417,1956
OAXACA,San Agustín Loxicha,16.01660861,-96.61676444,941
OAXACA,San Agustín Tlacotepec,17.20368444,-97.5179,276
OAXACA,San Agustín Yatareni,17.08121194,-96.66811722,2354
OAXACA,San Andrés Cabecera Nueva,16.88841556,-97.68099,160
OAXACA,San Andrés Dinicuiti,17.68811472,-97.72675111,362
OAXACA,San Andrés Huaxpaltepec,16.32904611,-97.91634889,2080
OAXACA,San Andrés Huayápam,17.10254333,-96.66623917,3015
OAXACA,San Andrés Ixtlahuaca,17.07087444,-96.82517694,532
OAXACA,San Andrés Lagunas,17.57442667,-97.52274556,112
OAXACA,San Andrés Nuxiño,17.23835806,-97.10527111,91
OAXACA,San Andrés Paxtlán,16.21563583,-96.50758,316
OAXACA,San Andrés Sinaxtla,17.46850194,-97.28381111,251
OAXACA,San Andrés Solaga,17.27102806,-96.23689472,279
OAXACA,San Andrés Teotilálpam,17.95413083,-96.65658833,562
OAXACA,San Andrés Tepetlapa,17.66583333,-98.39168667,86
OAXACA,San Andrés Yaá,17.29257833,-96.15361611,167
OAXACA,San Andrés Zabache,16.60014861,-96.85773556,228
OAXACA,San Andrés Zautla,17.18638778,-96.86349,815
OAXACA,San Antonino Castillo Velasco,16.8032275,-96.68464,3398
OAXACA,San Antonino el Alto,16.81570056,-97.02937444,494
OAXACA,San Antonino Monte Verde,17.53361361,-97.72062944,466
OAXACA,San Antonio Acutla,17.74403,-97.500305,30
OAXACA,San Antonio de la Cal,17.03131333,-96.69928417,12890
OAXACA,San Antonio Huitepec,16.92733139,-97.14742194,350
OAXACA,San Antonio Nanahuatípam,18.13029944,-97.12364472,322
OAXACA,San Antonio Sinicahua,17.15157361,-97.56795944,70
OAXACA,San Antonio Tepetlapa,16.54236083,-98.06622611,516
OAXACA,San Baltazar Chichicápam,16.76209722,-96.48968056,739
OAXACA,San Baltazar Loxicha,16.0733,-96.79032083,903
OAXACA,San Baltazar Yatzachi el Bajo,17.22815667,-96.21981111,63
OAXACA,San Bartolo Coyotepec,16.95828139,-96.70765028,2526
OAXACA,San Bartolomé Ayautla,18.03180028,-96.67150889,720
OAXACA,San Bartolomé Loxicha,15.97038972,-96.71101556,434
OAXACA,San Bartolomé Quialana,16.9018875,-96.50120611,895
OAXACA,San Bartolomé Yucuañe,17.24254694,-97.44792944,411
OAXACA,San Bartolomé Zoogocho,17.24078861,-96.24305056,64
OAXACA,San Bartolo Soyaltepec,17.59064083,-97.30893472,33
OAXACA,San Bartolo Yautepec,16.43074139,-95.97311222,209
OAXACA,San Bernardo Mixtepec,16.82466056,-96.89866639,584
OAXACA,San Blas Atempa,16.32632194,-95.22754583,7496
OAXACA,San Carlos Yautepec,16.50060667,-96.10670361,346
OAXACA,San Cristóbal Amatlán,16.31840806,-96.41001611,1763
OAXACA,San Cristóbal Amoltepec,17.28453278,-97.5698525,96
OAXACA,San Cristóbal Lachirioag,17.33597167,-96.16504722,503
OAXACA,San Cristóbal Suchixtlahuaca,17.72755389,-97.36665583,151
OAXACA,San Dionisio del Mar,16.32053917,-94.75700333,1048
OAXACA,San Dionisio Ocotepec,16.79775444,-96.39603722,2587
OAXACA,San Dionisio Ocotlán,16.74644417,-96.68083528,344
OAXACA,San Esteban Atatlahuca,17.06654944,-97.67776944,148
OAXACA,San Felipe Jalapa de Díaz,18.0712825,-96.536115,3162
OAXACA,San Felipe Tejalápam,17.11140083,-96.8532575,1187
OAXACA,San Felipe Usila,17.879395,-96.52836306,2396
OAXACA,San Francisco Cahuacuá,16.89356306,-97.30559417,169
OAXACA,San Francisco Cajonos,17.17209417,-96.25146444,123
OAXACA,San Francisco Chapulapa,17.94095139,-96.7544075,77
OAXACA,San Francisco Chindúa,17.42858083,-97.31279083,276
OAXACA,San Francisco del Mar,16.23344639,-94.63227583,420
OAXACA,San Francisco Huehuetlán,18.19759417,-96.94782139,222
OAXACA,San Francisco Ixhuatán,16.35235667,-94.48382833,2500
OAXACA,San Francisco Jaltepetongo,17.38571417,-97.26285361,85
OAXACA,San Francisco Lachigoló,17.01140694,-96.59851639,2420
OAXACA,San Francisco Logueche,16.35227944,-96.37797861,357
OAXACA,San Francisco Nuxaño,17.38083306,-97.34395083,131
OAXACA,San Francisco Ozolotepec,16.10053917,-96.22068194,247
OAXACA,San Francisco Sola,16.51496639,-96.97440028,553
OAXACA,San Francisco Telixtlahuaca,17.29659556,-96.90441333,5659
OAXACA,San Francisco Teopan,17.85112833,-97.49253111,84
OAXACA,San Francisco Tlapancingo,17.48412389,-98.26890861,226
OAXACA,San Gabriel Mixtepec,16.09442278,-97.07949917,1444
OAXACA,San Ildefonso Amatlán,16.33409472,-96.49155639,279
OAXACA,San Ildefonso Sola,16.51981222,-96.9836675,107
OAXACA,San Ildefonso Villa Alta,17.33901056,-96.15301444,531
OAXACA,San Jacinto Amilpas,17.10080667,-96.76256167,8869
OAXACA,San Jacinto Tlacotepec,16.5203675,-97.38599833,116
OAXACA,San Jerónimo Coatlán,16.23272139,-96.86929417,276
OAXACA,San Jerónimo Silacayoapilla,17.80963028,-97.8459325,364
OAXACA,San Jerónimo Sosola,17.36655917,-97.03261444,49
OAXACA,San Jerónimo Taviche,16.71367944,-96.59426333,641
OAXACA,San Jerónimo Tecóatl,18.16691389,-96.9132,344
OAXACA,San Jorge Nuchita,17.65595417,-98.10613,538
OAXACA,San José Ayuquila,17.94178778,-97.96927389,362
OAXACA,San José Chiltepec,17.9453525,-96.17053667,1632
OAXACA,San José del Peñasco,16.31605944,-96.50138083,256
OAXACA,San José Estancia Grande,16.36520333,-98.25128556,389
OAXACA,San José Independencia,18.23982389,-96.64612833,264
OAXACA,San José Lachiguiri,16.37877583,-96.3364325,269
OAXACA,San José Tenango,18.15076194,-96.71720861,523
OAXACA,San Juan Achiutla,17.34424472,-97.50887306,102
OAXACA,San Juan Atepec,17.42639278,-96.5391325,411
OAXACA,Ánimas Trujano,16.98888222,-96.71319611,2004
OAXACA,San Juan Bautista Atatlahuca,17.53109583,-96.82994083,216
OAXACA,San Juan Bautista Coixtlahuaca,17.72464333,-97.32382306,448
OAXACA,San Juan Bautista Cuicatlán,17.80154806,-96.95956667,2518
OAXACA,San Juan Bautista Guelache,17.22654528,-96.77850472,459
OAXACA,San Juan Bautista Jayacatlán,17.42350444,-96.82257056,532
OAXACA,San Juan Bautista Lo de Soto,16.51151472,-98.3468025,589
OAXACA,San Juan Bautista Suchitepec,17.97271778,-97.65982,110
OAXACA,San Juan Bautista Tlacoatzintepec,17.85944139,-96.5870875,248
OAXACA,San Juan Bautista Tlachichilco,17.62254778,-98.34399306,196
OAXACA,San Juan Bautista Tuxtepec,18.08116472,-96.11848167,53787
OAXACA,San Juan Cacahuatepec,16.61373389,-98.15609194,1745
OAXACA,San Juan Cieneguilla,17.85165861,-98.28076444,131
OAXACA,San Juan Coatzóspam,18.04969972,-96.76332472,289
OAXACA,San Juan Colorado,16.45966583,-97.95398917,2212
OAXACA,San Juan Comaltepec,17.33817972,-95.97684639,231
OAXACA,San Juan Cotzocón,17.16400222,-95.78231028,1774
OAXACA,San Juan Chicomezúchil,17.28897528,-96.49491694,150
OAXACA,San Juan Chilateca,16.82851778,-96.67201056,686
OAXACA,San Juan del Estado,17.27352833,-96.79927278,1184
OAXACA,San Juan del Río,16.88252694,-96.16047028,566
OAXACA,San Juan Diuxi,17.28150944,-97.3742425,265
OAXACA,San Juan Evangelista Analco,17.40582722,-96.53795,104
OAXACA,San Juan Guelavía,16.95676333,-96.54583194,1346
OAXACA,San Juan Guichicovi,16.96282889,-95.09509417,2203
OAXACA,San Juan Ihualtepec,17.73984167,-98.28884611,82
OAXACA,San Juan Juquila Mixes,16.93563306,-95.91881806,682
OAXACA,San Juan Juquila Vijanos,17.35381333,-96.30401472,184
OAXACA,San Juan Lachao,16.15853833,-97.12510833,575
OAXACA,San Juan Lachigalla,16.59177972,-96.54884306,363
OAXACA,San Juan Lajarcia,16.50844389,-95.92559056,131
OAXACA,San Juan Lalana,17.47089111,-95.87988306,115
OAXACA,San Juan de los Cués,18.04692722,-97.05966361,658
OAXACA,San Juan Mazatlán,17.03112361,-95.44646694,1124
OAXACA,San Juan Mixtepec,17.30572611,-97.83144694,618
OAXACA,San Juan Mixtepec,16.27753944,-96.29947778,105
OAXACA,San Juan Ñumí,17.39828944,-97.70642139,65
OAXACA,San Juan Ozolotepec,16.1330075,-96.25929333,163
OAXACA,San Juan Petlapa,17.46930222,-96.03683417,224
OAXACA,San Juan Quiahije,16.30187833,-97.31684611,496
OAXACA,San Juan Quiotepec,17.60076333,-96.58816167,381
OAXACA,San Juan Sayultepec,17.45348222,-97.28474056,193
OAXACA,San Juan Tabaá,17.30518583,-96.20710222,443
OAXACA,San Juan Tamazola,17.16043861,-97.2268825,104
OAXACA,San Juan Teita,17.09526167,-97.41431306,101
OAXACA,San Juan Teitipac,16.93439889,-96.60850944,1072
OAXACA,San Juan Tepeuxila,17.72288111,-96.84110278,151
OAXACA,San Juan Teposcolula,17.55060917,-97.42457889,183
OAXACA,San Juan Yaeé,17.42908722,-96.28384556,327
OAXACA,San Juan Yatzona,17.40242444,-96.16924444,160
OAXACA,San Juan Yucuita,17.51225333,-97.27035833,204
OAXACA,San Lorenzo,16.39426222,-97.87483611,838
OAXACA,San Lorenzo Albarradas,16.90722556,-96.25964833,533
OAXACA,San Lorenzo Cacaotepec,17.12935861,-96.80199556,5427
OAXACA,San Lorenzo Cuaunecuiltitla,18.20645278,-96.91305722,263
OAXACA,San Lorenzo Texmelúcan,16.58549056,-97.19897444,92
OAXACA,San Lorenzo Victoria,17.66835611,-98.12027361,166
OAXACA,San Lucas Camotlán,16.94316278,-95.71314417,716
OAXACA,San Lucas Ojitlán,18.05750306,-96.39776278,2772
OAXACA,San Lucas Quiaviní,16.89480194,-96.46809417,659
OAXACA,San Lucas Zoquiápam,18.13615972,-96.90642889,240
OAXACA,San Luis Amatlán,16.38942389,-96.49717389,398
OAXACA,San Marcial Ozolotepec,16.08925694,-96.40589167,284
OAXACA,San Marcos Arteaga,17.71960278,-97.86113833,416
OAXACA,San Martín de los Cansecos,16.65647639,-96.72900528,426
OAXACA,San Martín Huamelúlpam,17.39740389,-97.60235167,49
OAXACA,San Martín Itunyoso,17.22901889,-97.88147694,118
OAXACA,San Martín Lachilá,16.61086444,-96.84937167,361
OAXACA,San Martín Peras,17.36051056,-98.23844444,700
OAXACA,San Martín Tilcajete,16.85894806,-96.69557139,780
OAXACA,San Martín Toxpalan,18.10072417,-97.05902722,805
OAXACA,San Martín Zacatepec,17.80794639,-98.06086444,189
OAXACA,San Mateo Cajonos,17.16177639,-96.20897556,137
OAXACA,Capulálpam de Méndez,17.30642083,-96.44597972,731
OAXACA,San Mateo del Mar,16.20970028,-94.98189194,1638
OAXACA,San Mateo Yoloxochitlán,18.143675,-96.868415,897
OAXACA,San Mateo Etlatongo,17.41483611,-97.27174,231
OAXACA,San Mateo Nejápam,17.65558806,-98.41699389,315
OAXACA,San Mateo Peñasco,17.15079444,-97.533645,390
OAXACA,San Mateo Piñas,15.99950833,-96.33518917,192
OAXACA,San Mateo Río Hondo,16.14423,-96.44844833,361
OAXACA,San Mateo Sindihui,17.0042325,-97.35123333,361
OAXACA,San Mateo Tlapiltepec,17.81058861,-97.43118278,109
OAXACA,San Melchor Betaza,17.25239583,-96.15435528,290
OAXACA,San Miguel Achiutla,17.30625222,-97.48937389,133
OAXACA,San Miguel Ahuehuetitlán,17.67134778,-98.3208525,617
OAXACA,San Miguel Aloápam,17.41291278,-96.69146472,429
OAXACA,San Miguel Amatitlán,17.89138861,-98.02556778,220
OAXACA,San Miguel Amatlán,17.27552472,-96.47174972,97
OAXACA,San Miguel Coatlán,16.19631333,-96.69411417,665
OAXACA,San Miguel Chicahua,17.63694278,-97.19488306,96
OAXACA,San Miguel Chimalapa,16.71446361,-94.7478825,658
OAXACA,San Miguel del Puerto,15.92163333,-96.17485222,355
OAXACA,San Miguel del Río,17.32165778,-96.56922083,72
OAXACA,San Miguel Ejutla,16.58038611,-96.73927556,473
OAXACA,San Miguel el Grande,17.04674111,-97.62216944,585
OAXACA,San Miguel Huautla,17.74582139,-97.13751944,289
OAXACA,San Miguel Mixtepec,16.77810139,-96.95732417,257
OAXACA,San Miguel Panixtlahuaca,16.26003111,-97.37964333,1426
OAXACA,San Miguel Peras,16.93792278,-97.00996667,295
OAXACA,San Miguel Piedras,16.99968333,-97.23269972,134
OAXACA,San Miguel Quetzaltepec,16.97548667,-95.76168028,1189
OAXACA,San Miguel Santa Flor,17.92108333,-96.79930056,183
OAXACA,Villa Sola de Vega,16.51475806,-96.97801389,977
OAXACA,San Miguel Soyaltepec,18.24037167,-96.40358139,3441
OAXACA,San Miguel Suchixtepec,16.09400444,-96.46640917,643
OAXACA,Villa Talea de Castro,17.36000278,-96.24992111,735
OAXACA,San Miguel Tecomatlán,17.39404361,-97.26799111,94
OAXACA,San Miguel Tenango,16.26732139,-95.59252167,169
OAXACA,San Miguel Tequixtepec,17.80286111,-97.34165528,157
OAXACA,San Miguel Tilquiápam,16.78194222,-96.58155639,1007
OAXACA,San Miguel Tlacamama,16.41672861,-98.06321694,822
OAXACA,San Miguel Tlacotepec,17.45362417,-98.00723889,502
OAXACA,San Miguel Tulancingo,17.75124028,-97.44151083,122
OAXACA,San Miguel Yotao,17.37046444,-96.33723528,216
OAXACA,San Nicolás,16.41595556,-96.74082389,348
OAXACA,San Nicolás Hidalgo,17.78291944,-98.14258333,224
OAXACA,San Pablo Coatlán,16.2239775,-96.78299889,236
OAXACA,San Pablo Cuatro Venados,16.9827075,-96.89110972,112
OAXACA,San Pablo Etla,17.14550556,-96.76449,2451
OAXACA,San Pablo Huitzo,17.27736722,-96.88449556,3049
OAXACA,San Pablo Huixtepec,16.82673639,-96.781005,4687
OAXACA,San Pablo Macuiltianguis,17.53429056,-96.55356139,130
OAXACA,San Pablo Tijaltepec,17.01765806,-97.4999625,105
OAXACA,San Pablo Villa de Mitla,16.92185972,-96.36215472,5452
OAXACA,San Pablo Yaganiza,17.1460825,-96.22957472,477
OAXACA,San Pedro Amuzgos,16.65390417,-98.08992694,2286
OAXACA,San Pedro Apóstol,16.73514611,-96.72603333,617
OAXACA,San Pedro Atoyac,16.48908444,-97.98697722,722
OAXACA,San Pedro Cajonos,17.16867056,-96.26063917,442
OAXACA,San Pedro Coxcaltepec Cántaros,17.49884944,-97.13581333,73
OAXACA,San Pedro Comitancillo,16.49030361,-95.15987778,1818
OAXACA,San Pedro el Alto,16.03361556,-96.4737225,231
OAXACA,San Pedro Huamelula,16.02903194,-95.66885583,1161
OAXACA,San Pedro Huilotepec,16.24365722,-95.15293444,1373
OAXACA,San Pedro Ixcatlán,18.14566028,-96.51062222,976
OAXACA,San Pedro Ixtlahuaca,17.06327611,-96.82009417,1905
OAXACA,San Pedro Jaltepetongo,17.68784972,-97.03494028,89
OAXACA,San Pedro Jicayán,16.45218639,-98.01519861,1528
OAXACA,San Pedro Jocotipac,17.76856,-97.08019556,326
OAXACA,San Pedro Juchatengo,16.34095222,-97.08732139,463
OAXACA,San Pedro Mártir,16.74448944,-96.71221806,764
OAXACA,San Pedro Mártir Quiechapa,16.41522694,-96.24753861,229
OAXACA,San Pedro Mártir Yucuxaco,17.43262833,-97.61007583,112
OAXACA,San Pedro Mixtepec,15.98264361,-97.08383194,2636
OAXACA,San Pedro Mixtepec,16.27179861,-96.28279778,176
OAXACA,San Pedro Molinos,17.10463944,-97.54112444,148
OAXACA,San Pedro Nopala,17.80629389,-97.54130667,175
OAXACA,San Pedro Ocopetatillo,18.18493611,-96.91315333,324
OAXACA,San Pedro Ocotepec,16.95541861,-95.84675111,546
OAXACA,San Pedro Pochutla,15.74634083,-96.46523028,7815
OAXACA,San Pedro Quiatoni,16.78319972,-96.03155111,1200
OAXACA,San Pedro Sochiápam,17.82514056,-96.66440028,580
OAXACA,San Pedro Tapanatepec,16.36724861,-94.19384833,4166
OAXACA,San Pedro Taviche,16.63784861,-96.53759778,552
OAXACA,San Pedro Teozacoalco,17.01712611,-97.28609806,160
OAXACA,San Pedro Teutila,17.97702833,-96.70567139,385
OAXACA,San Pedro Tidaá,17.34076417,-97.37727278,390
OAXACA,San Pedro Topiltepec,17.43720111,-97.34371222,99
OAXACA,San Pedro Totolápam,16.66644444,-96.30190694,755
OAXACA,Villa de Tututepec,16.12989472,-97.60854139,861
OAXACA,San Pedro Yaneri,17.41935583,-96.35457056,168
OAXACA,San Pedro Yólox,17.58843583,-96.55157556,212
OAXACA,San Pedro y San Pablo Ayutla,17.02715083,-96.07708167,963
OAXACA,Villa de Etla,17.20752806,-96.80057944,3902
OAXACA,San Pedro y San Pablo Teposcolula,17.51206972,-97.48818861,945
OAXACA,San Pedro y San Pablo Tequixtepec,18.06065611,-97.71784611,155
OAXACA,San Pedro Yucunama,17.56100417,-97.48259111,101
OAXACA,San Raymundo Jalpan,16.97039639,-96.75549778,1215
OAXACA,San Sebastián Abasolo,16.994675,-96.58885917,736
OAXACA,San Sebastián Coatlán,16.20125861,-96.82753917,446
OAXACA,San Sebastián Ixcapa,16.54366722,-98.14448722,485
OAXACA,San Sebastián Nicananduta,17.51789694,-97.68326833,452
OAXACA,San Sebastián Río Hondo,16.18283056,-96.46406056,438
OAXACA,San Sebastián Tecomaxtlahuaca,17.34585639,-98.03117389,1207
OAXACA,San Sebastián Teitipac,16.95142472,-96.61401889,726
OAXACA,San Sebastián Tutla,17.05847611,-96.67212028,3047
OAXACA,San Simón Almolongas,16.4074075,-96.71967222,445
OAXACA,San Simón Zahuatlán,17.82885333,-98.00452833,355
OAXACA,Santa Ana,16.34063806,-96.71761,786
OAXACA,Santa Ana Ateixtlahuaca,18.21057833,-96.90638306,120
OAXACA,Santa Ana Cuauhtémoc,17.98384111,-96.79469833,157
OAXACA,Santa Ana del Valle,16.99482694,-96.47167472,830
OAXACA,Santa Ana Tavela,16.65464972,-95.9115675,275
OAXACA,Santa Ana Tlapacoyan,16.74400333,-96.83708389,457
OAXACA,Santa Ana Yareni,17.39778778,-96.61077944,177
OAXACA,Santa Ana Zegache,16.83787528,-96.72593889,1049
OAXACA,Santa Catalina Quierí,16.32220111,-96.26585806,270
OAXACA,Santa Catarina Cuixtla,16.30439556,-96.64474389,615
OAXACA,Santa Catarina Ixtepeji,17.26554889,-96.56169917,280
OAXACA,Santa Catarina Juquila,16.23700944,-97.29247278,4115
OAXACA,Santa Catarina Lachatao,17.2684475,-96.47293417,71
OAXACA,Santa Catarina Loxicha,16.06950444,-96.75486556,741
OAXACA,Santa Catarina Mechoacán,16.33443361,-97.83602583,1739
OAXACA,Santa Catarina Minas,16.77918972,-96.61545611,755
OAXACA,Santa Catarina Quiané,16.88030611,-96.7407475,917
OAXACA,Santa Catarina Tayata,17.34780472,-97.55837889,122
OAXACA,Santa Catarina Ticuá,17.07123583,-97.53485861,253
OAXACA,Santa Catarina Yosonotú,17.02054972,-97.66212778,84
OAXACA,Santa Catarina Zapoquila,18.0645575,-97.60165528,106
OAXACA,Santa Cruz Acatepec,18.16376167,-96.87531917,312
OAXACA,Santa Cruz Amilpas,17.0587,-96.68401722,6820
OAXACA,Santa Cruz de Bravo,17.58137389,-98.22398917,123
OAXACA,Santa Cruz Itundujia,16.87493028,-97.66055139,353
OAXACA,Santa Cruz Mixtepec,16.79244278,-96.88240722,580
OAXACA,Santa Cruz Nundaco,17.17413917,-97.72318722,64
OAXACA,Santa Cruz Papalutla,16.95948861,-96.58491139,1093
OAXACA,Santa Cruz Tacache de Mina,17.82766139,-98.1507875,720
OAXACA,Santa Cruz Tacahua,16.91890111,-97.49216583,125
OAXACA,Santa Cruz Tayata,17.35776889,-97.568595,47
OAXACA,Santa Cruz Xitla,16.32243667,-96.67312889,1468
OAXACA,Santa Cruz Xoxocotlán,17.02728139,-96.73435806,44125
OAXACA,Santa Cruz Zenzontepec,16.53513111,-97.49507889,175
OAXACA,Santa Gertrudis,16.78659472,-96.79721139,866
OAXACA,Santa Inés del Monte,16.92576667,-96.86168694,218
OAXACA,Santa Inés Yatzeche,16.80867333,-96.75632417,528
OAXACA,Santa Lucía del Camino,17.06411806,-96.69467722,24452
OAXACA,Santa Lucía Miahuatlán,16.18647306,-96.61821111,318
OAXACA,Santa Lucía Monteverde,16.97129111,-97.66630278,147
OAXACA,Santa Lucía Ocotlán,16.74219,-96.68039611,1663
OAXACA,Santa María Alotepec,17.09209556,-95.85457167,427
OAXACA,Santa María Apazco,17.63458333,-97.10038694,218
OAXACA,Santa María la Asunción,18.10822417,-96.81936528,539
OAXACA,Heroica Ciudad de Tlaxiaco,17.26746972,-97.68049167,10061
OAXACA,Ayoquezco de Aldama,16.68566556,-96.84311444,1588
OAXACA,Santa María Atzompa,17.10286556,-96.77926111,15239
OAXACA,Santa María Camotlán,17.89956056,-97.69338,655
OAXACA,Santa María Colotepec,15.89779222,-96.93858889,751
OAXACA,Santa María Cortijo,16.4508025,-98.28571639,371
OAXACA,Santa María Coyotepec,16.96716056,-96.70673639,1384
OAXACA,Santa María Chachoápam,17.52515556,-97.283505,189
OAXACA,Villa de Chilapa de Díaz,17.58832889,-97.63191222,399
OAXACA,Santa María Chilchotla,18.23424028,-96.83054056,919
OAXACA,Santa María Chimalapa,16.90992,-94.68302222,782
OAXACA,Santa María del Rosario,17.35176139,-97.59382028,52
OAXACA,Santa María del Tule,17.04670167,-96.63659222,4244
OAXACA,Santa María Ecatepec,16.2841825,-95.88113028,179
OAXACA,Santa María Guelacé,17.00087667,-96.60283,432
OAXACA,Santa María Guienagati,16.73798278,-95.35448583,546
OAXACA,Santa María Huatulco,15.83611139,-96.32209306,5587
OAXACA,Santa María Huazolotitlán,16.30222222,-97.91286111,2018
OAXACA,Santa María Ipalapa,16.63621861,-98.03382389,688
OAXACA,Santa María Ixcatlán,17.85159306,-97.19048194,245
OAXACA,Santa María Jacatepec,17.86013278,-96.21132444,556
OAXACA,Santa María Jalapa del Marqués,16.44006528,-95.44337806,4356
OAXACA,Santa María Jaltianguis,17.36561278,-96.52827139,214
OAXACA,Santa María Lachixío,16.72775611,-97.01921083,310
OAXACA,Santa María Mixtequilla,16.37370833,-95.26047333,1608
OAXACA,Santa María Nativitas,17.66149444,-97.33478722,63
OAXACA,Santa María Nduayaco,17.41150889,-97.49633722,20
OAXACA,Santa María Ozolotepec,16.13084083,-96.37006667,344
OAXACA,Santa María Pápalo,17.78416,-96.79735639,544
OAXACA,Santa María Peñoles,17.078915,-97.00244556,169
OAXACA,Santa María Petapa,16.82242917,-95.12003861,1214
OAXACA,Santa María Quiegolani,16.27721333,-96.05200306,267
OAXACA,Santa María Sola,16.56674917,-97.01311389,245
OAXACA,Santa María Tataltepec,17.14245889,-97.39511556,124
OAXACA,Santa María Tecomavaca,17.95625722,-97.02443722,730
OAXACA,Santa María Temaxcalapa,17.38109944,-96.16247778,412
OAXACA,Santa María Temaxcaltepec,16.16310889,-97.194655,358
OAXACA,Santa María Teopoxco,18.16665917,-96.95513917,209
OAXACA,Santa María Tepantlali,16.99751306,-96.01012028,372
OAXACA,Santa María Texcatitlán,17.712905,-97.06668944,364
OAXACA,Santa María Tlahuitoltepec,17.09753694,-96.06325222,1254
OAXACA,Santa María Tlalixtac,17.95167722,-96.73807528,296
OAXACA,Santa María Tonameca,15.74713944,-96.54536528,974
OAXACA,Santa María Totolapilla,16.60322833,-95.62545472,255
OAXACA,Santa María Xadani,16.36030083,-95.01985028,4222
OAXACA,Santa María Yalina,17.24047083,-96.26278139,75
OAXACA,Santa María Yavesía,17.23421528,-96.42951556,102
OAXACA,Santa María Yolotepec,16.87680472,-97.50532806,115
OAXACA,Santa María Yosoyúa,17.12018583,-97.51479222,120
OAXACA,Santa María Yucuhiti,17.01819278,-97.76950889,121
OAXACA,Santa María Zacatepec,16.76389444,-97.9898775,2862
OAXACA,Santa María Zaniza,16.6550975,-97.33854361,361
OAXACA,Santa María Zoquitlán,16.55835972,-96.35287111,640
OAXACA,Santiago Amoltepec,16.64090556,-97.49480278,368
OAXACA,Santiago Apoala,17.6486025,-97.13694528,84
OAXACA,Santiago Apóstol,16.80426306,-96.72241389,1614
OAXACA,Santiago Astata,15.98763111,-95.67586556,958
OAXACA,Santiago Atitlán,17.10397333,-95.94579694,313
OAXACA,Santiago Ayuquililla,17.93510583,-97.95826222,548
OAXACA,Santiago Cacaloxtepec,17.72023806,-97.74048639,450
OAXACA,Santiago Camotlán,17.44626694,-96.18465611,219
OAXACA,Santiago Comaltepec,17.56412556,-96.54781306,245
OAXACA,Villa de Santiago Chazumba,18.18876833,-97.68053972,898
OAXACA,Santiago Choápam,17.36061194,-95.92262333,325
OAXACA,Santiago del Río,17.45597528,-98.08854028,52
OAXACA,Santiago Huajolotitlán,17.82664972,-97.73176694,872
OAXACA,Santiago Huauclilla,17.45084083,-97.07152722,64
OAXACA,Santiago Ihuitlán Plumas,17.84847444,-97.42974306,74
OAXACA,Santiago Ixcuintepec,16.93480611,-95.62310556,428
OAXACA,Santiago Ixtayutla,16.56500639,-97.65196889,483
OAXACA,Santiago Jamiltepec,16.27945833,-97.81968222,5030
OAXACA,Santiago Jocotepec,17.53567972,-95.94441611,433
OAXACA,Santiago Juxtlahuaca,17.33529028,-98.01244944,5359
OAXACA,Santiago Lachiguiri,16.68645861,-95.53265833,696
OAXACA,Santiago Lalopa,17.41795944,-96.24859222,180
OAXACA,Santiago Laollaga,16.58488667,-95.20457917,1189
OAXACA,Santiago Laxopa,17.2197575,-96.31339639,174
OAXACA,Santiago Llano Grande,16.48942639,-98.28966861,713
OAXACA,Santiago Matatlán,16.86609944,-96.38342333,1913
OAXACA,Santiago Miltepec,17.98473333,-97.68928861,131
OAXACA,Santiago Minas,16.42618333,-97.22815333,131
OAXACA,Santiago Nacaltepec,17.50547417,-96.91649556,122
OAXACA,Santiago Nejapilla,17.42028389,-97.37261639,64
OAXACA,Santiago Nundiche,17.33179222,-97.67349833,73
OAXACA,Santiago Nuyoó,17.0151725,-97.76653917,162
OAXACA,Santiago Pinotepa Nacional,16.33900917,-98.0503475,16895
OAXACA,Santiago Suchilquitongo,17.24712583,-96.87368611,4020
OAXACA,Santiago Tamazola,17.66930889,-98.22080028,817
OAXACA,Santiago Tapextla,16.34097,-98.44747417,396
OAXACA,Villa Tejúpam de la Unión,17.6670875,-97.47352083,536
OAXACA,Santiago Tenango,17.32492056,-97.00410361,133
OAXACA,Santiago Tepetlapa,17.78259583,-97.40153611,36
OAXACA,Santiago Tetepec,16.32227083,-97.74825389,333
OAXACA,Santiago Texcalcingo,18.20819556,-96.96876917,228
OAXACA,Santiago Textitlán,16.69272444,-97.26032028,397
OAXACA,Santiago Tilantongo,17.28307722,-97.33980361,205
OAXACA,Santiago Tillo,17.460285,-97.31972333,180
OAXACA,Santiago Tlazoyaltepec,17.02690194,-96.99549528,88
OAXACA,Santiago Xanica,16.00946889,-96.22492611,269
OAXACA,Santiago Xiacuí,17.29311972,-96.43162806,194
OAXACA,Santiago Yaitepec,16.22557111,-97.26935972,1325
OAXACA,Santiago Yaveo,17.33582833,-95.70069167,229
OAXACA,Santiago Yolomécatl,17.47093278,-97.56975028,745
OAXACA,Santiago Yosondúa,16.87337722,-97.57660889,687
OAXACA,Santiago Yucuyachi,17.60820139,-98.196405,164
OAXACA,Santiago Zacatepec,17.15939528,-95.91496222,838
OAXACA,Santiago Zoochila,17.22056611,-96.24213861,181
OAXACA,Nuevo Zoquiápam,17.29132167,-96.61998417,442
OAXACA,Santo Domingo Ingenio,16.58849222,-94.76863,2580
OAXACA,Santo Domingo Albarradas,17.06804361,-96.20009389,307
OAXACA,Santo Domingo Armenta,16.33297222,-98.37815222,937
OAXACA,Santo Domingo Chihuitán,16.59188611,-95.16236944,542
OAXACA,Santo Domingo de Morelos,15.83300444,-96.66807639,661
OAXACA,Santo Domingo Ixcatlán,16.91392667,-97.53193361,84
OAXACA,Santo Domingo Nuxaá,17.22189722,-97.12071,79
OAXACA,Santo Domingo Ozolotepec,16.15086806,-96.31039944,244
OAXACA,Santo Domingo Petapa,16.82066917,-95.1404225,2629
OAXACA,Santo Domingo Roayaga,17.33763056,-96.11457278,172
OAXACA,Santo Domingo Tehuantepec,16.33205833,-95.23204917,22764
OAXACA,Santo Domingo Teojomulco,16.58940278,-97.2261875,681
OAXACA,Santo Domingo Tepuxtepec,16.95688722,-96.05540639,379
OAXACA,Santo Domingo Tlatayápam,17.40746778,-97.34702306,44
OAXACA,Santo Domingo Tomaltepec,17.06041972,-96.6243575,1405
OAXACA,Santo Domingo Tonalá,17.67461167,-97.96393222,1042
OAXACA,Santo Domingo Tonaltepec,17.61085722,-97.36008222,23
OAXACA,Santo Domingo Xagacía,17.1555425,-96.26796139,417
OAXACA,Santo Domingo Yanhuitlán,17.52804278,-97.34230944,455
OAXACA,Santo Domingo Yodohino,17.61688639,-97.68302222,111
OAXACA,Santo Domingo Zanatepec,16.48280361,-94.35390333,3750
OAXACA,Santos Reyes Nopala,16.10676444,-97.14444694,3214
OAXACA,Santos Reyes Pápalo,17.80465667,-96.86087778,534
OAXACA,Santos Reyes Tepejillo,17.43775583,-97.9383225,267
OAXACA,Santos Reyes Yucuná,17.77774083,-98.00452667,242
OAXACA,Santo Tomás Jalieza,16.84437833,-96.67103306,774
OAXACA,Santo Tomás Mazaltepec,17.17352667,-96.87153333,1337
OAXACA,Santo Tomás Ocotepec,17.14525444,-97.76230139,153
OAXACA,Santo Tomás Tamazulapan,16.27203444,-96.58582889,873
OAXACA,San Vicente Coatlán,16.38688556,-96.84495417,740
OAXACA,San Vicente Lachixío,16.70434333,-97.01952889,394
OAXACA,San Vicente Nuñú,17.45676083,-97.44228361,174
OAXACA,Silacayoápam,17.50144722,-98.14258528,1155
OAXACA,Sitio de Xitlapehua,16.35103611,-96.53260306,235
OAXACA,Soledad Etla,17.17168417,-96.82075694,2151
OAXACA,Villa de Tamazulápam del Progreso,17.67306278,-97.57284806,3202
OAXACA,Tanetze de Zaragoza,17.37673306,-96.30223611,403
OAXACA,Taniche,16.56696444,-96.75358139,362
OAXACA,Tataltepec de Valdés,16.30640639,-97.54606944,1025
OAXACA,Teococuilco de Marcos Pérez,17.35198917,-96.61494444,327
OAXACA,Teotitlán de Flores Magón,18.13233444,-97.07070417,3932
OAXACA,Teotitlán del Valle,17.02957944,-96.51894861,2998
OAXACA,Teotongo,17.72632333,-97.5367125,247
OAXACA,Tepelmeme Villa de Morelos,17.87480611,-97.36219806,500
OAXACA,"Heroica Villa Tezoatlán de Segura y Luna, Cuna de la Independencia de Oaxaca",17.65446639,-97.80833778,1118
OAXACA,San Jerónimo Tlacochahuaya,17.00886694,-96.58107361,1323
OAXACA,Tlacolula de Matamoros,16.95562389,-96.479215,7941
OAXACA,Tlacotepec Plumas,17.85077722,-97.43282917,149
OAXACA,Tlalixtac de Cabrera,17.07448444,-96.64841694,6090
OAXACA,Totontepec Villa de Morelos,17.25863389,-96.02735472,565
OAXACA,Trinidad Zaachila,16.92122722,-96.76534333,466
OAXACA,La Trinidad Vista Hermosa,17.77263028,-97.50575139,66
OAXACA,Unión Hidalgo,16.47282389,-94.82893889,6303
OAXACA,Valerio Trujano,17.77171444,-96.98022083,355
OAXACA,San Juan Bautista Valle Nacional,17.77495333,-96.30404472,2751
OAXACA,Villa Díaz Ordaz,16.99854806,-96.43253694,1510
OAXACA,Yaxe,16.72512667,-96.47247861,1146
OAXACA,Magdalena Yodocono de Porfirio Díaz,17.38509389,-97.35497611,440
OAXACA,Yogana,16.46121389,-96.78855444,315
OAXACA,Yutanduchi de Guerrero,17.03945528,-97.29749889,448
OAXACA,Villa de Zaachila,16.95071778,-96.75058833,8893
OAXACA,San Mateo Yucutindoo,16.87636972,-97.2388775,126
OAXACA,Zapotitlán Lagunas,17.75547583,-98.38957472,511
OAXACA,Zapotitlán Palmas,17.88986278,-97.81814806,516
OAXACA,Santa Inés de Zaragoza,17.22850139,-97.15922389,47
OAXACA,Zimatlán de Álvarez,16.86668611,-96.78563306,7440
PUEBLA,Acajete,19.10494028,-97.952715,5790
PUEBLA,Acateno,20.12990528,-97.21040361,1635
PUEBLA,Acatlán,18.20230139,-98.04860583,8970
PUEBLA,Acatzingo,18.979455,-97.78545972,14768
PUEBLA,Acteopan,18.76502028,-98.71529139,1213
PUEBLA,Ahuacatlán,20.00546611,-97.86069889,684
PUEBLA,Ahuatlán,18.57301111,-98.25523,314
PUEBLA,Ahuazotepec,20.04604667,-98.1623475,1127
PUEBLA,Ahuehuetitla,18.2107675,-98.22135528,452
PUEBLA,Ajalpan,18.37753667,-97.25830444,17112
PUEBLA,Albino Zertuche,18.01727722,-98.54015889,392
PUEBLA,Aljojuca,19.10040639,-97.53133528,1649
PUEBLA,Altepexi,18.36676694,-97.29917972,11602
PUEBLA,Amixtlán,20.04943694,-97.79891694,832
PUEBLA,Amozoc,19.04461278,-98.04491694,45560
PUEBLA,Aquixtla,19.79668889,-97.93663972,549
PUEBLA,Atempan,19.8399,-97.45927861,3662
PUEBLA,Atexcal,18.39835083,-97.73681694,423
PUEBLA,Atlixco,18.90884833,-98.4341675,46823
PUEBLA,Atoyatempan,18.82256694,-97.91374972,3440
PUEBLA,Atzala,18.54482,-98.55427583,538
PUEBLA,Atzitzihuacán,18.82371167,-98.58264167,409
PUEBLA,Atzitzintla,18.89738194,-97.32738778,1494
PUEBLA,Axutla,18.18855389,-98.38940333,255
PUEBLA,Ayotoxco de Guerrero,20.09715944,-97.41052361,1536
PUEBLA,Calpan,19.10793806,-98.45923917,3907
PUEBLA,Caltepec,18.18230778,-97.47937056,183
PUEBLA,Camocuautla,20.03848778,-97.75772694,634
PUEBLA,Caxhuacan,20.06395806,-97.60661722,1283
PUEBLA,Coatepec,20.062145,-97.73226611,245
PUEBLA,Coatzingo,18.61514333,-98.17421639,704
PUEBLA,Cohetzala,18.20641972,-98.80588861,154
PUEBLA,Cohuecan,18.783205,-98.72048889,866
PUEBLA,Coronango,19.13110222,-98.30807361,7812
PUEBLA,Coxcatlán,18.26653306,-97.14711306,3140
PUEBLA,Coyomeapan,18.28374806,-96.99250028,399
PUEBLA,Coyotepec,18.40441583,-97.83078,478
PUEBLA,Cuapiaxtla de Madero,18.91687333,-97.8252975,3736
PUEBLA,Cuautempan,19.91263833,-97.79624111,654
PUEBLA,Cuautinchán,18.95571417,-98.01597639,1405
PUEBLA,Cuautlancingo,19.08934694,-98.27331,19175
PUEBLA,Cuayuca de Andrade,18.48666472,-98.18386444,320
PUEBLA,Cuetzalan del Progreso,20.01852028,-97.52077056,3454
PUEBLA,Cuyoaco,19.6053375,-97.62185139,818
PUEBLA,Chalchicomula de Sesma,18.98826,-97.44849583,11695
PUEBLA,Chapulco,18.62048806,-97.41116722,3020
PUEBLA,Chiautla,18.29965111,-98.60278111,5222
PUEBLA,Chiautzingo,19.20291444,-98.46825917,4171
PUEBLA,Chiconcuautla,20.0947675,-97.93962556,2179
PUEBLA,Chichiquila,19.2002575,-97.06771,1221
PUEBLA,Chietla,18.51936472,-98.5783525,2606
PUEBLA,Chigmecatitlán,18.64556611,-98.07562111,529
PUEBLA,Chignahuapan,19.83822333,-98.03097528,11202
PUEBLA,Chignautla,19.81391194,-97.38958972,6378
PUEBLA,Chila,17.97001583,-97.86166028,701
PUEBLA,Chila de la Sal,18.1091,-98.48432222,282
PUEBLA,Honey,20.23921361,-98.2121375,421
PUEBLA,Chilchotla,19.25520194,-97.18389333,2435
PUEBLA,Chinantla,18.20050222,-98.26316389,635
PUEBLA,Domingo Arenas,19.14202861,-98.45750917,3154
PUEBLA,Eloxochitlán,18.49894694,-96.95483722,620
PUEBLA,Epatlán,18.64178667,-98.37078889,904
PUEBLA,Esperanza,18.85835694,-97.37512639,3592
PUEBLA,Francisco Z. Mena,20.73369417,-97.8521375,2195
PUEBLA,General Felipe Ángeles,18.9934075,-97.70879417,1731
PUEBLA,Guadalupe,18.09146722,-98.12042139,917
PUEBLA,Guadalupe Victoria,19.28978639,-97.34269556,5678
PUEBLA,Hermenegildo Galeana,20.12173361,-97.74462083,428
PUEBLA,Huaquechula,18.77070778,-98.54153194,1553
PUEBLA,Huatlatlauca,18.67877444,-98.05077194,281
PUEBLA,Huauchinango,20.17469778,-98.05134,28429
PUEBLA,Huehuetla,20.1041375,-97.62489972,849
PUEBLA,Huehuetlán el Chico,18.37316694,-98.68794806,1967
PUEBLA,Huejotzingo,19.15899417,-98.40813111,14815
PUEBLA,Hueyapan,19.88255806,-97.44586278,3575
PUEBLA,Hueytamalco,19.93947889,-97.28904083,3111
PUEBLA,Hueytlalpan,20.02573333,-97.69867833,727
PUEBLA,Huitzilan de Serdán,19.96621222,-97.69365917,1975
PUEBLA,Huitziltepec,18.76941556,-97.88083333,1236
PUEBLA,Atlequizayan,20.0140075,-97.62408611,488
PUEBLA,Ixcamilpa de Guerrero,18.02704333,-98.69657306,431
PUEBLA,Ixcaquixtla,18.46009556,-97.8323475,2497
PUEBLA,Ixtacamaxtitlán,19.62360333,-97.81657028,163
PUEBLA,Ixtepec,20.02493667,-97.64677944,1381
PUEBLA,Izúcar de Matamoros,18.60223111,-98.46540639,24258
PUEBLA,Jalpan,20.48009639,-97.94263139,87
PUEBLA,Jolalpan,18.32051667,-98.8442975,2947
PUEBLA,Jonotla,20.03038028,-97.57490472,410
PUEBLA,Jopala,20.16280028,-97.69292,543
PUEBLA,Juan C. Bonilla,19.110695,-98.32903333,2053
PUEBLA,Juan Galindo,20.21208306,-98.00214194,3526
PUEBLA,Juan N. Méndez,18.54000444,-97.77229,700
PUEBLA,Lafragua,19.29664361,-97.29898778,331
PUEBLA,Libres,19.4647325,-97.68772611,8524
PUEBLA,La Magdalena Tlatlauquitepec,18.75852,-98.10070056,221
PUEBLA,Mazapiltepec de Juárez,19.11926417,-97.70350139,635
PUEBLA,Mixtla,18.90308056,-97.89548722,688
PUEBLA,Molcaxac,18.73790139,-97.91185944,756
PUEBLA,Cañada Morelos,18.73699389,-97.42209583,1864
PUEBLA,Naupan,20.22847194,-98.10973306,823
PUEBLA,Nauzontla,19.95903778,-97.60311972,403
PUEBLA,Nealtican,19.05094667,-98.42773028,6487
PUEBLA,Nicolás Bravo,18.61322333,-97.30565889,357
PUEBLA,Nopalucan,19.21602917,-97.82353778,3509
PUEBLA,Ocotepec,19.55549806,-97.6492175,488
PUEBLA,Ocoyucan,18.97687333,-98.30254639,2875
PUEBLA,Olintla,20.10177778,-97.6847375,777
PUEBLA,Oriental,19.3758025,-97.61935083,5077
PUEBLA,Pahuatlán,20.27572611,-98.14991028,1689
PUEBLA,Palmar de Bravo,18.83592639,-97.54750667,2452
PUEBLA,Pantepec,20.52181972,-97.93849083,895
PUEBLA,Petlalcingo,18.08220139,-97.91784806,1159
PUEBLA,Piaxtla,18.19875611,-98.26014472,569
PUEBLA,Puebla,19.04398972,-98.19749472,794483
PUEBLA,Quecholac,18.95506333,-97.66044861,5619
PUEBLA,Quimixtlán,19.25326167,-97.1356775,758
PUEBLA,Rafael Lara Grajales,19.22538417,-97.80455083,4828
PUEBLA,Los Reyes de Juárez,18.94678833,-97.81310361,9059
PUEBLA,San Andrés Cholula,19.05094389,-98.30065556,24390
PUEBLA,San Antonio Cañada,18.49733833,-97.29000139,929
PUEBLA,San Diego la Mesa Tochimiltzingo,18.80958667,-98.33140306,209
PUEBLA,San Felipe Teotlalcingo,19.23572472,-98.49545472,2812
PUEBLA,San Felipe Tepatlán,20.09133556,-97.7961675,127
PUEBLA,San Gabriel Chilac,18.32627333,-97.34798167,6719
PUEBLA,San Gregorio Atzompa,19.02668583,-98.34576556,2376
PUEBLA,San Jerónimo Tecuanipan,19.01441194,-98.40095694,1176
PUEBLA,San Jerónimo Xayacatlán,18.22126944,-97.91433722,488
PUEBLA,San José Chiapa,19.24207056,-97.76883333,2395
PUEBLA,San José Miahuatlán,18.29023833,-97.287655,3829
PUEBLA,San Juan Atenco,19.08998389,-97.54084361,760
PUEBLA,San Juan Atzompa,18.74609361,-98.024315,347
PUEBLA,San Martín Texmelucan,19.28290806,-98.43551556,40599
PUEBLA,San Martín Totoltepec,18.64920333,-98.34640083,245
PUEBLA,San Matías Tlalancaleca,19.32442722,-98.49816333,5475
PUEBLA,San Miguel Ixitlán,17.99951806,-97.77342417,214
PUEBLA,San Miguel Xoxtla,19.16830278,-98.30969889,5247
PUEBLA,San Nicolás Buenos Aires,19.16189667,-97.54841194,1384
PUEBLA,San Nicolás de los Ranchos,19.07258917,-98.48569694,3216
PUEBLA,San Pablo Anicano,18.12445444,-98.0840325,809
PUEBLA,San Pedro Cholula,19.06248417,-98.30750583,52857
PUEBLA,San Pedro Yeloixtlahuaca,18.117105,-98.07809917,365
PUEBLA,San Salvador el Seco,19.13474528,-97.64274972,9220
PUEBLA,San Salvador el Verde,19.26902056,-98.51716583,1361
PUEBLA,San Salvador Huixcolotla,18.92060972,-97.77178944,7604
PUEBLA,San Sebastián Tlacotepec,18.40464611,-96.85061028,642
PUEBLA,Santa Catarina Tlaltempan,18.6142625,-98.0799,289
PUEBLA,Santa Inés Ahuatempan,18.41271778,-98.01769556,1602
PUEBLA,Santa Isabel Cholula,18.99457444,-98.37923917,1008
PUEBLA,Santiago Miahuatlán,18.55315528,-97.44185333,8291
PUEBLA,Huehuetlán el Grande,18.73830556,-98.16791056,797
PUEBLA,Santo Tomás Hueyotlipan,18.89108917,-97.86723111,2530
PUEBLA,Soltepec,19.11922806,-97.70844472,2905
PUEBLA,Tecali de Herrera,18.9010325,-97.96913611,2964
PUEBLA,Tecamachalco,18.88469167,-97.72841611,15233
PUEBLA,Tecomatlán,18.11096028,-98.3143725,1471
PUEBLA,Tehuacán,18.46218444,-97.39199889,157313
PUEBLA,Tehuitzingo,18.33171417,-98.27612611,2665
PUEBLA,Tenampulco,20.17131917,-97.40541333,526
PUEBLA,Teopantlán,18.71325944,-98.26237056,873
PUEBLA,Teotlalco,18.46962278,-98.77826861,569
PUEBLA,Tepanco de López,18.55506861,-97.56149806,1714
PUEBLA,Tepango de Rodríguez,20.0028125,-97.79627,1123
PUEBLA,Tepatlaxco de Hidalgo,19.07730222,-97.96661694,7913
PUEBLA,Tepeaca,18.96613278,-97.90543444,14239
PUEBLA,Tepemaxalco,18.73560333,-98.629055,224
PUEBLA,Tepeojuma,18.72244861,-98.45028861,2468
PUEBLA,Tepetzintla,19.96708583,-97.84097528,417
PUEBLA,Tepexco,18.64163306,-98.69051833,637
PUEBLA,Tepexi de Rodríguez,18.58101694,-97.92619028,2783
PUEBLA,Tepeyahualco,19.49200583,-97.49225167,775
PUEBLA,Tepeyahualco de Cuauhtémoc,18.81314917,-97.87802861,1286
PUEBLA,Tetela de Ocampo,19.81675806,-97.80597222,2855
PUEBLA,Teteles de Avila Castillo,19.85829,-97.4571525,2256
PUEBLA,Teziutlán,19.81799056,-97.3608775,33054
PUEBLA,Tianguismanalco,18.97775889,-98.44821917,3161
PUEBLA,Tilapa,18.59158111,-98.55641,1343
PUEBLA,Tlacotepec de Benito Juárez,18.6827675,-97.65353972,4878
PUEBLA,Tlacuilotepec,20.32626528,-98.06890917,745
PUEBLA,Tlachichuca,19.11563472,-97.41911306,4017
PUEBLA,Tlahuapan,19.33050361,-98.58239889,4326
PUEBLA,Tlaltenango,19.17002333,-98.34431639,2676
PUEBLA,Tlanepantla,18.86536389,-97.88739694,1962
PUEBLA,Tlaola,20.13703472,-97.92427861,688
PUEBLA,Tlapacoya,20.12315083,-97.85137389,391
PUEBLA,Tlapanalá,18.69614417,-98.53779444,1455
PUEBLA,Tlatlauquitepec,19.85132972,-97.49666972,4890
PUEBLA,Tlaxco,20.423815,-98.02864361,497
PUEBLA,Tochimilco,18.89292444,-98.57216611,1846
PUEBLA,Tochtepec,18.84011417,-97.82574889,3433
PUEBLA,Totoltepec de Guerrero,18.22254111,-97.85513444,320
PUEBLA,Tulcingo,18.04513583,-98.44130972,3084
PUEBLA,Tuzamapan de Galeana,20.06561667,-97.57510222,724
PUEBLA,Tzicatlacoyan,18.8412275,-98.04814306,536
PUEBLA,Venustiano Carranza,20.50493083,-97.66938333,2859
PUEBLA,Vicente Guerrero,18.53787167,-97.20245611,1187
PUEBLA,Xayacatlán de Bravo,18.23557639,-97.97553972,359
PUEBLA,Xicotepec,20.27605861,-97.95814361,20357
PUEBLA,Xicotlán,18.05874306,-98.52494944,214
PUEBLA,Xiutetelco,19.79606139,-97.32651778,4534
PUEBLA,Xochiapulco,19.82121861,-97.65869944,372
PUEBLA,Xochiltepec,18.6500275,-98.34348361,478
PUEBLA,Xochitlán de Vicente Suárez,19.96832556,-97.63009333,1437
PUEBLA,Xochitlán Todos Santos,18.70549361,-97.77507694,2276
PUEBLA,Yaonáhuac,19.87089528,-97.46644611,1866
PUEBLA,Yehualtepec,18.79329111,-97.66286972,3392
PUEBLA,Zacapala,18.59062,-98.06532861,352
PUEBLA,Zacapoaxtla,19.87303639,-97.58955361,4714
PUEBLA,Zacatlán,19.932365,-97.96024444,19749
PUEBLA,Zapotitlán,18.32970889,-97.47542083,1694
PUEBLA,Zapotitlán de Méndez,20.00212306,-97.71507917,840
PUEBLA,Zaragoza,19.771435,-97.5556475,5450
PUEBLA,Zautla,19.71512417,-97.67233028,345
PUEBLA,Zihuateutla,20.24962111,-97.88639667,374
PUEBLA,Zinacatepec,18.33326833,-97.24541306,9435
PUEBLA,Zongozotla,19.97863833,-97.72674167,1649
PUEBLA,Zoquiapan,20.00983833,-97.5956425,433
PUEBLA,Zoquitlán,18.33572694,-97.01725889,1214
QUERÉTARO,Amealco de Bonfil,20.18644389,-100.144195,4103
QUERÉTARO,Pinal de Amoles,21.1353025,-99.62754028,986
QUERÉTARO,Arroyo Seco,21.54803639,-99.68916639,704
QUERÉTARO,Cadereyta de Montes,20.69502333,-99.81563306,7754
QUERÉTARO,Colón,20.78832639,-100.0454306,3827
QUERÉTARO,Corregidora,20.55243583,-100.4458831,63196
QUERÉTARO,Ezequiel Montes,20.665295,-99.89840556,8447
QUERÉTARO,Huimilpan,20.375245,-100.2743336,682
QUERÉTARO,Jalpan de Serra,21.21680222,-99.47291083,6936
QUERÉTARO,Landa de Matamoros,21.18345583,-99.32191472,895
QUERÉTARO,El Marqués,20.60656972,-100.3310967,5958
QUERÉTARO,Pedro Escobedo,20.50249361,-100.1447303,7007
QUERÉTARO,Peñamiller,21.05363139,-99.81452611,657
QUERÉTARO,Querétaro,20.59339111,-100.3899572,444459
QUERÉTARO,San Joaquín,20.91606139,-99.56635917,841
QUERÉTARO,San Juan del Río,20.38644139,-99.99963167,94189
QUERÉTARO,Tequisquiapan,20.5188175,-99.88384,18753
QUERÉTARO,Tolimán,20.90814917,-99.93080083,2999
QUINTANA ROO,Cozumel,20.50378417,-86.95758833,46308
QUINTANA ROO,Felipe Carrillo Puerto,19.57851,-88.04658667,14552
QUINTANA ROO,Isla Mujeres,21.25656917,-86.74609167,7744
QUINTANA ROO,Othón P. Blanco,18.49388944,-88.29789889,89107
QUINTANA ROO,Benito Juárez,21.16141611,-86.82481111,490577
QUINTANA ROO,José María Morelos,19.41843778,-88.82915611,61
QUINTANA ROO,Lázaro Cárdenas,21.10139889,-87.4872225,4032
QUINTANA ROO,Solidaridad,20.6281425,-87.0755,172619
QUINTANA ROO,Tulum,20.21077667,-87.46320472,18902
QUINTANA ROO,Bacalar,18.67614667,-88.38935278,6404
QUINTANA ROO,Puerto Morelos,20.8484525,-86.87617722,11163
SAN LUIS POTOSÍ,Ahualulco,22.40009944,-101.1668422,2719
SAN LUIS POTOSÍ,Alaquines,22.12789417,-99.60038917,410
SAN LUIS POTOSÍ,Aquismón,21.62136194,-99.01953528,1156
SAN LUIS POTOSÍ,Armadillo de los Infante,22.24359139,-100.6546747,123
SAN LUIS POTOSÍ,Cárdenas,22.00090444,-99.642505,7226
SAN LUIS POTOSÍ,Catorce,23.69044944,-100.8862533,621
SAN LUIS POTOSÍ,Cedral,23.81933167,-100.7266061,5799
SAN LUIS POTOSÍ,Cerritos,22.42766611,-100.2795967,7394
SAN LUIS POTOSÍ,Cerro de San Pedro,22.21778472,-100.8004625,50
SAN LUIS POTOSÍ,Ciudad del Maíz,22.39984611,-99.60057361,4544
SAN LUIS POTOSÍ,Ciudad Fernández,21.94351194,-100.0110222,17998
